Agglomeration_ID,Agglomeration_Name,ISO3,Longitude,Latitude,Population_1950,Population_1960,Population_1970,Population_1980,Population_1990,Population_2000,Population_2010,Population_2015,Population_2020,Population_2025,Population_2030,Population_2035,Population_2040,Population_2045,Population_2050,Built_2015,Built_2020,Built_2025,Built_2030,Built_2035,Built_2040,Built_2045,Built_2050,Voronoi_2015,Voronoi_2020,Voronoi_2025,Voronoi_2030,Voronoi_2035,Voronoi_2040,Voronoi_2045,Voronoi_2050,Closest Metro_2015,Closest Metro_2020,Closest Metro_2025,Closest Metro_2030,Closest Metro_2035,Closest Metro_2040,Closest Metro_2045,Closest Metro_2050,Dist to Metro_2015,Dist to Metro_2020,Dist to Metro_2025,Dist to Metro_2030,Dist to Metro_2035,Dist to Metro_2040,Dist to Metro_2045,Dist to Metro_2050,Metropole,MergedTo,DisaggFrom
1,10 Ramadan,EGY,31.804,30.274,-,-,-,-,"15,843","67,446","137,578","158,515","184,173","203,147","221,708","241,140",-,-,-,87,121,133,145,158,-,-,-,"2,954",948,11,9,5,13,9,13,Cairo,Cairo,Cairo,Cairo,Cairo,-,-,-,47,51,53,55,53,-,-,-,No,2320,0
2,24 al-Qurashy,SDN,32.774,14.247,-,-,-,"13,878","22,650","14,082","21,665","28,630","25,340","26,246","26,827","27,010","27,010","27,010","27,010",3,4,4,4,4,4,4,4,"1,931","1,873","1,979","3,512",725,"2,977",39,664,Khartum,Khartum,Khartum,Khartum,Khartum,Khartum,Khartum,Khartum,143,143,143,143,162,153,153,156,No,0,0
4,42nd Hill,ZAF,29.099,-28.239,-,-,-,"13,680","12,411","19,942","18,552","17,893","20,312","20,312","20,312","20,312","20,312","20,312","20,312",4,6,6,6,6,6,6,6,"4,402","3,279",42,42,"1,171",780,201,50,Maseru,Maseru,Maseru,Maseru,Maseru,Maseru,Maseru,Maseru,204,203,202,203,204,202,207,194,No,0,0
5,Siigadhere,SOM,46.220,6.252,-,-,-,-,-,-,"25,136","75,100","92,597","113,778","138,061","164,858","195,744","226,731","259,955",0,14,19,25,34,46,56,69,"5,622","5,658",29,160,17,128,971,155,Hargeisa,Hargeisa,Hargeisa,Hargeisa,Hargeisa,Hargeisa,Hargeisa,Hargeisa,431,429,430,430,436,437,438,439,No,5,0
6,'Adaado,SOM,46.631,6.137,-,-,-,-,-,-,"23,714","60,300","50,200","50,200","50,200","50,200","50,200","50,200","50,200",9,10,10,10,10,10,10,10,"10,619","4,743",37,133,70,54,"1,142",179,Hargeisa,Hargeisa,Hargeisa,Hargeisa,Hargeisa,Hargeisa,Hargeisa,Hargeisa,463,464,464,465,465,466,466,467,No,0,0
7,Aaliyab,SDN,33.786,17.309,-,-,-,-,-,-,-,"12,120","13,440","14,760","16,084","17,378","18,591","19,708","20,702",3,4,4,5,5,6,6,7,"3,957","3,693",226,"1,031",101,39,465,980,Khartum,Khartum,Khartum,Khartum,Khartum,Khartum,Khartum,Khartum,236,236,236,236,234,220,219,216,No,0,0
8,Aasalaya,SDN,32.717,13.241,-,-,-,"18,486",-,-,"18,219","20,167","10,412","10,784","11,023","11,098","11,098","11,098","11,098",2,2,3,3,3,3,3,3,"1,320","1,297",19,"17,961",488,301,"1,026",332,Khartum,Khartum,Khartum,Khartum,Khartum,Khartum,Khartum,Khartum,253,253,252,252,270,264,264,267,No,0,0
9,Aba,NGA,7.363,5.210,"53,274","125,832","194,000","300,000","464,000","688,000","1,019,000","1,687,158","1,731,615","2,000,237","2,260,701","2,541,859",-,-,-,504,557,621,686,768,-,-,-,476,390,218,216,284,"1,197",498,525,Malabo,Malabo,Malabo,Malabo,Malabo,-,-,-,222,219,236,234,218,-,-,-,No,7098,0
10,Aba,COD,30.199,3.856,-,-,-,-,-,-,"11,240","73,000","44,500","44,500","44,500","44,500","44,500","44,500","44,500",12,15,15,15,15,15,15,15,"3,585","3,950",959,165,91,700,386,177,Juba,Juba,Juba,Juba,Juba,Juba,Juba,Juba,179,180,172,184,185,186,168,187,No,0,0
11,Aba al-Waqf,EGY,30.769,28.588,"10,907","11,966","14,016","15,889","19,533","23,820","30,720","47,881","53,956","58,698","63,203","67,846","72,613","77,781","81,916",3,3,3,4,4,4,5,5,18,21,"92,813",10,19,3,40,10,Cairo,Cairo,Cairo,Cairo,Cairo,Cairo,Cairo,Cairo,181,182,174,172,178,187,195,199,No,11,0
13,Abadiyyat al-Ruda,EGY,30.892,31.075,-,-,-,-,-,-,-,"10,048","11,051","11,813","12,498","13,181","13,858","14,458","14,955",0,0,0,1,1,1,1,1,34,32,6,7,11,49,36,85,Cairo,Cairo,Cairo,Cairo,Cairo,Cairo,Cairo,Cairo,114,114,123,123,117,113,116,113,No,0,0
14,Abadla,DZA,-2.708,31.035,-,-,-,-,-,"11,023","11,938","13,494","15,254","16,676","17,932","19,066","20,176","21,303","22,393",2,5,5,6,7,7,8,8,"17,009","17,025",135,142,637,"3,461",881,20,Rabat,Rabat,Rabat,Rabat,Rabat,Rabat,Rabat,Rabat,543,546,543,543,543,543,545,546,No,0,0
15,Abaji,NGA,6.951,8.472,-,-,-,"10,700","14,200","29,500","61,300","63,838","34,363","39,855","45,794","51,984","58,347","64,658","70,878",7,8,10,12,15,18,22,26,"1,863",971,86,317,131,197,26,288,Abuja,Abuja,Abuja,Abuja,Abuja,Abuja,Abuja,Abuja,86,83,83,83,87,83,83,73,No,0,0
17,Abakaliki,NGA,7.983,6.402,-,"28,266","45,000","72,000","115,000","198,000","341,000","354,397","725,581","832,748","945,298","1,060,777","1,285,175","2,039,563","2,213,529",103,207,249,299,356,469,830,940,618,882,714,795,769,386,693,682,Malabo,Abuja,Malabo,Malabo,Malabo,Abuja,Douala,Douala,291,299,293,292,304,301,283,282,No,17,0
18,Abala,ETH,39.753,13.358,-,-,-,-,-,-,"12,457","17,100","17,964","21,213","24,628","28,131","31,716","35,372","39,039",3,3,4,5,6,8,10,11,"11,874","11,703",356,27,40,58,27,182,Asmara,Asmara,Asmara,Asmara,Asmara,Asmara,Asmara,Asmara,235,235,234,234,234,235,235,237,No,0,0
19,Abala Maidagi,NER,3.417,14.923,-,-,-,-,-,-,-,"15,071","19,002","23,467","28,640","34,464","40,831","47,570","54,473",3,5,7,9,12,15,18,20,"14,026","13,771",368,715,"5,516",-,-,-,Niamey,Niamey,Niamey,Niamey,Niamey,Niamey,Niamey,Niamey,208,206,207,212,207,203,207,207,No,0,0
20,Abalak,NER,6.283,15.460,-,-,-,-,-,"11,931","19,435","25,197","26,231","26,231","26,231","26,231","26,231","26,231","26,231",8,8,8,8,8,8,8,8,"18,167","17,735",450,177,"24,561",-,-,-,Niamey,Niamey,Niamey,Niamey,Niamey,Niamey,Niamey,Niamey,485,484,484,488,484,479,484,484,No,0,0
23,Abdelmalek Ramdane,DZA,0.273,36.105,-,-,-,-,-,-,"10,552","11,047","11,566","11,682","11,682","11,682","11,682","11,682","11,682",1,1,1,1,1,1,1,1,"8,679","8,602",260,642,637,44,25,11,Alger,Alger,Alger,Alger,Alger,Alger,Alger,Alger,333,297,307,307,301,301,267,282,No,0,0
24,Abderafi,ETH,36.471,13.699,-,-,-,-,-,-,"12,826","17,000","17,227","20,687","24,373","28,205","32,172","36,258","40,395",4,4,5,7,9,11,13,15,"3,151","3,151",90,20,24,379,104,520,Asmara,Asmara,Asmara,Asmara,Asmara,Asmara,Asmara,Asmara,314,314,314,314,313,313,313,311,No,0,0
25,Abdi II,TCD,21.305,12.807,-,-,-,-,-,-,-,"18,193","21,649","25,253","29,078","33,077","37,127","41,249","45,312",2,3,4,5,6,7,8,10,"5,966","5,801",928,614,427,347,669,"1,273",Ndjamena,Ndjamena,Ndjamena,Ndjamena,Ndjamena,Ndjamena,Ndjamena,Ndjamena,655,655,651,657,650,649,653,653,No,0,0
26,Abduka,NGA,4.315,8.259,-,-,-,-,-,-,-,"10,425","13,285","15,177","17,190","19,248","21,323","23,336","25,277",1,4,5,5,6,8,9,10,241,279,102,196,93,269,181,155,Lagos,Lagos,Lagos,Lagos,Lagos,Lagos,Lagos,Lagos,206,208,211,209,209,208,185,179,No,0,0
27,Abéché,TCD,20.833,13.827,-,"18,764","27,285","37,125","49,969","71,438","103,428","124,449","148,091","172,749","198,910","226,269","253,977","282,175","309,973",37,53,65,80,98,119,141,154,"5,279","4,996","12,493",49,413,"1,366","1,441",298,Ndjamena,Ndjamena,Ndjamena,Ndjamena,Ndjamena,Ndjamena,Ndjamena,Ndjamena,629,630,627,632,626,625,630,629,No,0,0
28,Abengourou,CIV,-3.496,6.736,-,-,"23,564","40,582","61,469","75,862","96,058","108,296","126,471","137,275","147,919","158,024","167,535","176,223","184,089",18,28,31,35,38,41,45,48,806,417,"1,550",-,-,-,-,-,Abidjan,Abidjan,Abidjan,Abidjan,Abidjan,Abidjan,Abidjan,Abidjan,159,159,170,170,169,168,168,153,No,0,0
29,Abeokuta,NGA,3.374,7.145,"80,228","157,982","209,000","278,000","368,000","412,000","462,000","747,542","924,438","1,071,611","1,243,564","1,411,203",-,-,-,148,227,279,346,420,-,-,-,858,528,295,100,135,295,970,952,Lagos,Lagos,Lagos,Lagos,Lagos,-,-,-,56,54,82,84,84,-,-,-,No,5199,0
30,Abetifi,GHA,-0.740,6.675,-,-,-,-,-,-,"10,445","11,733","14,710","14,710","14,710","14,710","14,710","14,710","14,710",3,8,8,8,8,8,8,8,"3,023","1,494",124,124,252,73,416,-,Kumasi,Kumasi,Kumasi,Kumasi,Kumasi,Kumasi,Kumasi,Kumasi,91,92,92,86,86,86,86,86,No,0,0
31,Abgadam Camp,TCD,22.845,10.951,-,-,-,-,-,-,-,"21,000","24,850","28,832","33,026","37,380","41,754","46,174","50,495",1,2,2,3,3,4,5,5,"18,726","11,308","1,681",161,"4,790",128,410,91,Ndjamena,Ndjamena,Ndjamena,Ndjamena,Ndjamena,Ndjamena,Ndjamena,Ndjamena,822,821,817,824,816,815,819,819,No,0,0
32,Abidjan,CIV,-3.960,5.369,"63,811","224,605","580,844","1,251,272","2,107,460","3,044,942","4,108,908","4,717,347","5,877,152","6,718,596","7,615,721","8,624,513","9,605,331","11,004,388","12,180,101",348,517,621,743,908,"1,082","1,405","1,705","1,172","1,905",104,-,-,-,-,-,Abidjan,Abidjan,-,-,-,-,-,-,-,-,-,-,-,-,-,-,Yes,32,0
34,Abinsi,NGA,8.745,7.751,-,-,-,-,-,-,-,"10,272","11,042","12,662","14,393","16,172","17,976","19,736","21,444",2,2,3,3,4,5,6,7,373,365,91,731,52,39,39,159,Abuja,Abuja,Abuja,Abuja,Abuja,Abuja,Abuja,Abuja,199,198,199,199,200,200,200,214,No,0,0
35,Abiriba,NGA,7.735,5.703,-,-,-,"11,300","15,500","22,200","31,800","43,965","42,631","48,597","54,925","61,375","67,857","74,121","80,137",9,10,13,15,18,21,24,28,185,149,210,852,"1,231","1,008",231,"1,164",Malabo,Malabo,Malabo,Malabo,Malabo,Malabo,Malabo,Malabo,243,243,243,242,242,242,245,246,No,0,0
36,Abis 4,EGY,29.992,31.120,-,-,-,-,"10,893","13,277","15,377","17,461","18,291","19,709","21,021","22,351","23,696","24,931","26,012",1,0,0,0,0,0,1,1,317,67,"5,397",3,"1,578",503,46,38,Cairo,Cairo,Cairo,Cairo,Cairo,Cairo,Cairo,Cairo,178,179,185,184,179,181,188,186,No,0,0
37,None 4,EGY,29.989,31.098,-,-,-,-,-,"13,533","20,761","50,152","10,806","11,643","12,418","13,204","13,998","14,728","15,367",1,1,1,1,1,1,1,1,120,13,10,"5,689",7,6,8,40,Cairo,Cairo,Cairo,Cairo,Cairo,Cairo,Cairo,Cairo,177,178,183,182,178,179,186,184,No,0,0
38,Abiyi Adi,ETH,38.990,13.632,-,-,-,-,-,"10,954","18,769","24,200","31,062","39,419","48,603","58,428","68,839","79,777","91,064",3,3,5,7,9,12,15,18,"4,356","3,989",186,239,29,97,22,149,Asmara,Asmara,Asmara,Asmara,Asmara,Asmara,Asmara,Asmara,188,188,188,188,188,189,188,188,No,0,0
39,Abiyot Fana,ETH,37.147,11.326,-,-,-,-,-,-,"11,148","11,958","13,314","14,607","15,802","16,863","17,805","18,635","19,338",4,2,3,3,3,4,4,4,78,82,323,254,23,455,282,96,Addis Ababa,Addis Ababa,Addis Ababa,Addis Ababa,Addis Ababa,Addis Ababa,Addis Ababa,Addis Ababa,318,318,321,321,309,309,310,323,No,0,0
44,Abofour,GHA,-1.733,7.132,-,-,-,-,-,"11,177","10,071","11,339","17,310","21,414","25,825","30,495","35,333","40,329","45,160",4,6,8,11,14,19,23,27,786,422,"1,869",2,102,34,"1,151",-,Kumasi,Kumasi,Kumasi,Kumasi,Kumasi,Kumasi,Kumasi,Kumasi,51,52,53,48,47,47,46,46,No,0,0
45,Abogwa,NGA,3.713,6.638,-,-,-,"10,500","13,900","14,300","14,700","26,292","22,467","25,676","40,233","47,024",-,-,-,4,5,6,16,19,-,-,-,611,626,277,129,89,249,717,251,Lagos,Lagos,Lagos,Lagos,Lagos,-,-,-,42,49,20,21,21,-,-,-,No,5199,0
46,Aboisso,CIV,-3.211,5.471,-,-,"11,526","16,846","22,497","28,156","40,105","46,954","52,186","55,355","58,217","60,631","62,579","63,998","64,902",8,8,9,10,10,10,11,11,786,247,105,-,-,-,-,-,Abidjan,Abidjan,Abidjan,Abidjan,Abidjan,Abidjan,Abidjan,Abidjan,80,78,81,81,76,76,76,94,No,0,0
47,Aboisso-Comoe,CIV,-3.404,5.734,-,-,-,-,"11,197","15,645","15,663","16,378","18,203","19,308","20,306","21,148","21,827","22,322","22,637",1,1,2,2,2,2,2,2,"1,784","1,179","1,128",-,-,-,-,-,Abidjan,Abidjan,Abidjan,Abidjan,Abidjan,Abidjan,Abidjan,Abidjan,70,70,78,77,74,74,74,79,No,0,0
48,Abolou,BEN,2.143,6.850,-,-,-,-,-,-,-,"11,890","23,909","25,793","27,570","29,122","30,449","31,495",-,2,10,11,12,13,14,15,-,304,293,-,-,-,-,-,-,Cotonou,Cotonou,Cotonou,Cotonou,Cotonou,Cotonou,Cotonou,-,44,40,37,36,35,34,33,-,No,2505,0
49,Abomey,BEN,2.063,7.161,"15,000","21,000","22,265","31,470","47,342","57,187","192,032","256,757","385,036","421,635","453,932","483,245","539,719","576,622","708,397",87,166,188,208,228,256,279,339,286,405,-,-,-,-,-,-,Cotonou,Cotonou,Cotonou,Cotonou,Cotonou,Cotonou,Cotonou,Cotonou,81,75,77,76,71,70,69,67,No,49,0
51,Abomsa,ETH,39.833,8.487,-,-,-,-,-,"12,392","15,663","18,131","20,989","24,323","27,760","31,217","34,696","38,189","41,639",3,3,4,4,5,6,7,9,"1,375","1,071","1,801",55,32,"3,733",24,560,Addis Ababa,Addis Ababa,Addis Ababa,Addis Ababa,Addis Ababa,Addis Ababa,Addis Ababa,Addis Ababa,119,119,114,114,136,136,140,114,No,0,0
52,Abong-Mbang,CMR,13.178,3.977,-,-,-,-,"13,061","14,713","15,710","15,758","19,043","21,809","24,743","27,796","30,991","34,193","37,405",4,4,5,6,7,8,10,12,"19,290","19,306",97,"1,511","2,193","8,058","5,580",183,Yaounde,Yaounde,Yaounde,Yaounde,Yaounde,Yaounde,Yaounde,Yaounde,171,169,168,170,167,174,174,174,No,0,0
53,Abongoua 1,CIV,-4.108,6.657,-,-,-,-,-,-,-,"10,696","13,793","16,608","19,710","23,041","26,587","30,284","34,113",1,1,2,2,3,3,4,5,333,331,147,-,-,-,-,-,Abidjan,Abidjan,Abidjan,Abidjan,Abidjan,Abidjan,Abidjan,Abidjan,143,143,156,156,156,156,156,132,No,0,0
54,Abonnema,NGA,6.766,4.747,-,-,-,-,-,"10,900","15,100","23,616","63,020","71,923","98,751","110,471","122,268","133,692","144,688",5,5,6,9,10,12,14,16,657,412,67,35,396,480,661,452,Malabo,Malabo,Malabo,Malabo,Malabo,Malabo,Malabo,Malabo,237,236,233,232,234,234,233,230,No,54,0
55,Abora,ETH,37.029,9.986,-,-,-,-,-,-,-,"13,501","14,210","16,308","18,444","20,566","22,676","24,773","26,821",3,3,4,4,5,6,7,8,"1,842","1,599",131,88,101,62,108,86,Addis Ababa,Addis Ababa,Addis Ababa,Addis Ababa,Addis Ababa,Addis Ababa,Addis Ababa,Addis Ababa,219,219,223,223,204,204,202,224,No,0,0
57,Abou El Hassan,DZA,1.186,36.423,-,-,-,-,-,"11,126","13,273","16,050","17,169","17,765","18,087","18,219","18,264","18,264","18,264",3,2,2,3,3,3,3,3,"1,866",188,"2,903",529,637,550,"1,240",13,Alger,Alger,Alger,Alger,Alger,Alger,Alger,Alger,233,196,205,206,199,199,165,181,No,0,0
58,Aboude-Kouassikro,CIV,-4.534,5.892,-,-,-,-,-,-,"10,620","11,756","24,522","29,204","34,336","39,819","45,628","51,657","57,880",2,5,7,9,11,14,18,21,694,287,112,-,-,-,-,-,Abidjan,Abidjan,Abidjan,Abidjan,Abidjan,Abidjan,Abidjan,Abidjan,86,83,94,95,98,98,99,67,No,0,0
59,Abougoudam,TCD,20.752,13.658,-,-,-,-,-,-,"11,827","15,411","18,339","21,393","24,633","28,022","31,453","34,946","38,389",1,1,1,2,2,3,3,4,"6,450","6,547","1,499",39,78,83,737,821,Ndjamena,Ndjamena,Ndjamena,Ndjamena,Ndjamena,Ndjamena,Ndjamena,Ndjamena,616,617,613,618,612,611,615,614,No,0,0
60,Abraka,NGA,6.106,5.789,-,-,"11,300","21,200","39,800","59,700","89,600","101,811","78,190","89,044","189,840","211,936","234,105","255,488","275,987",14,21,26,73,84,95,107,119,243,345,387,"1,356",392,849,345,259,Lagos,Lagos,Lagos,Lagos,Lagos,Lagos,Lagos,Lagos,306,313,266,265,265,264,310,301,No,60,0
61,Abshadat,EGY,30.729,27.847,-,-,-,"11,718","14,725","18,069","44,125","68,912","77,055","83,599","89,774","96,111","102,593","108,682","114,171",4,4,4,5,5,6,6,7,26,54,226,19,7,6,16,7,Cairo,Cairo,Cairo,Cairo,Cairo,Cairo,Cairo,Cairo,261,262,253,251,257,266,273,277,No,0,0
62,Abshan,EGY,31.165,31.173,-,-,"10,758","12,726","15,970","18,447","22,076","24,932","27,569","29,530","31,306","33,084","34,858","36,446","37,785",2,1,2,2,2,2,2,2,46,55,21,18,90,28,25,7,Cairo,Cairo,Cairo,Cairo,Cairo,Cairo,Cairo,Cairo,117,116,125,126,119,114,113,109,No,0,0
65,Absug,EGY,30.889,28.854,-,-,-,-,-,-,"11,834","13,824","15,599","17,175","18,711","20,316","21,987","23,610","25,133",0,0,1,1,1,1,1,1,12,16,6,160,8,20,105,68,Cairo,Cairo,Cairo,Cairo,Cairo,Cairo,Cairo,Cairo,149,150,141,140,146,154,163,166,No,0,0
66,Abu al-Abbas,EGY,30.749,28.500,-,-,-,-,-,-,-,"11,049","24,934","27,119","29,194","31,332","33,526","35,602","37,489",1,1,1,1,1,1,2,2,11,9,25,92,34,265,13,4,Cairo,Cairo,Cairo,Cairo,Cairo,Cairo,Cairo,Cairo,190,192,182,181,189,198,206,210,No,0,0
70,Abu al-Khawi,EGY,30.807,30.593,-,-,-,-,-,"10,272","11,507","13,067","14,330","15,356","16,286","17,218","18,150","18,985",-,0,0,0,0,0,0,0,-,44,384,12,163,11,8,7,17,Cairo,Cairo,Cairo,Cairo,Cairo,Cairo,Cairo,-,75,76,82,82,77,78,85,-,No,2320,0
71,Abu al-Matamir,EGY,30.159,30.918,-,-,"13,184","19,390","29,824","38,170","48,629","72,048","133,090","142,661","151,352","160,072","173,909","183,055","189,969",10,14,15,16,18,20,21,23,62,58,12,28,6,15,20,25,Cairo,Cairo,Cairo,Cairo,Cairo,Cairo,Cairo,Cairo,144,151,155,155,150,148,155,154,No,71,0
74,Abu al-Shiqaf,EGY,30.413,30.885,-,-,-,-,-,"13,334","16,137","18,325","20,432","22,028","23,506","25,007","26,525","28,975","30,246",2,2,2,2,2,2,3,3,53,23,33,9,14,258,5,3,Cairo,Cairo,Cairo,Cairo,Cairo,Cairo,Cairo,Cairo,127,128,135,135,130,131,138,135,No,74,0
75,Abu al-Shuquq,EGY,31.601,30.827,-,-,-,-,-,"11,179","14,109","16,256","17,887","19,365","20,752","22,171","36,591","38,683","40,553",1,1,1,1,1,3,3,3,17,59,69,392,33,20,41,45,Cairo,Cairo,Cairo,Cairo,Cairo,Cairo,Cairo,Cairo,83,81,90,91,86,76,69,65,No,75,0
76,Abu Ashur,EGY,31.821,30.549,-,-,-,-,-,-,"10,629","12,413","13,904","14,982","15,979","16,990","18,012",-,-,0,0,0,0,0,0,-,-,105,561,20,"4,271",9,5,8,65,Cairo,Cairo,Cairo,Cairo,Cairo,Cairo,-,-,70,68,74,76,72,62,-,-,No,2320,0
79,Abu Danqash,EGY,30.679,29.292,-,-,-,-,-,-,"12,364","14,723","16,694","18,607","20,510","22,521","24,635","26,724","28,729",1,1,1,1,1,1,1,1,16,34,8,5,"1,873",192,177,8,Cairo,Cairo,Cairo,Cairo,Cairo,Cairo,Cairo,Cairo,115,117,110,108,112,122,133,136,No,0,0
80,Abu Darraz,EGY,30.621,31.223,-,-,-,-,-,-,-,"10,956","12,128","12,996","13,784","14,573","15,362","16,069","16,667",2,1,1,1,1,1,1,2,56,89,"4,452",21,13,7,7,12,Cairo,Cairo,Cairo,Cairo,Cairo,Cairo,Cairo,Cairo,142,142,150,150,144,142,146,143,No,0,0
81,Abu Dashisha,EGY,31.352,31.303,-,-,-,-,-,"10,526","27,845","25,568","27,851","29,799","31,555","33,310","35,054","36,607","37,905",2,2,2,2,2,3,3,3,56,34,355,62,12,85,67,590,Cairo,Cairo,Cairo,Cairo,Cairo,Cairo,Cairo,Cairo,130,129,139,140,133,126,123,119,No,0,0
82,Abu Dawn,SDN,31.118,17.984,-,-,-,-,-,-,-,"15,158","12,532","12,980","13,267","13,358","13,358","13,358","13,358",9,9,9,9,9,9,9,9,"9,687","9,005",246,64,16,70,339,95,Khartum,Khartum,Khartum,Khartum,Khartum,Khartum,Khartum,Khartum,310,311,311,311,288,307,308,305,No,0,0
83,Abu Dawud al-Inab,EGY,31.366,30.869,-,-,-,-,-,-,-,"15,002","16,169","17,232","18,173","19,104","20,018","20,814","21,455",2,1,1,1,2,2,2,2,11,11,11,32,7,"6,813",8,133,Cairo,Cairo,Cairo,Cairo,Cairo,Cairo,Cairo,Cairo,82,81,91,92,86,79,76,72,No,0,0
84,Abu Dawud al-Sabbakh,EGY,31.576,30.914,-,-,-,"10,510","13,379","16,234","19,743","22,453","24,163","25,736","27,126","28,498","29,844","31,009","31,943",2,2,2,2,2,2,2,2,21,22,"2,518",11,7,"1,735",428,6,Cairo,Cairo,Cairo,Cairo,Cairo,Cairo,Cairo,Cairo,91,90,99,100,94,85,79,75,No,0,0
85,Abu Durra,EGY,30.621,31.010,-,-,-,-,-,-,"12,786","14,519","15,983",-,-,-,-,-,-,1,1,-,-,-,-,-,-,16,41,17,10,52,9,6,39,Cairo,Cairo,-,-,-,-,-,-,123,123,-,-,-,-,-,-,No,7941,0
86,Abu Galal,EGY,31.566,31.272,-,-,-,"11,734","14,266","16,857","20,651","23,486","25,424","27,139","28,670","30,191","31,693","33,013","34,094",2,2,2,2,2,2,2,2,65,55,14,331,21,"1,569",6,26,Cairo,Cairo,Cairo,Cairo,Cairo,Cairo,Cairo,Cairo,130,128,137,139,133,125,119,115,No,0,0
87,Abu Gandir,EGY,30.666,29.241,-,-,-,-,-,-,"16,259","34,442","39,016","43,475","47,907","52,588","57,512","62,374","69,232",2,1,2,2,2,2,3,3,39,45,10,43,50,98,23,12,Cairo,Cairo,Cairo,Cairo,Cairo,Cairo,Cairo,Cairo,120,122,114,112,117,127,137,140,No,87,0
90,Abu Guta,SDN,32.733,14.931,-,-,-,-,-,"11,466","14,877","16,549","15,312","15,860","16,210","16,321","16,321","16,321","16,321",2,2,2,2,2,2,2,2,"1,767","1,536",35,190,"1,872",30,"1,182",688,Khartum,Khartum,Khartum,Khartum,Khartum,Khartum,Khartum,Khartum,68,68,68,68,89,77,77,80,No,0,0
91,Abu Hamad,SDN,33.325,19.537,-,-,-,-,-,-,"12,663","13,860","13,837","14,332","14,649","14,749","14,749","14,749","14,749",6,6,6,6,6,6,6,6,"76,904","76,675",147,49,"6,535",30,"2,769",102,Khartum,Khartum,Khartum,Khartum,Khartum,Khartum,Khartum,Khartum,452,452,452,452,440,438,438,434,No,0,0
93,Abu Hijar,SDN,33.988,12.857,-,-,-,-,-,-,"12,550","14,155","14,375","15,029","15,528","15,831","15,906","15,906","15,906",4,5,5,5,6,6,6,6,"1,298","1,300","1,348",28,129,129,270,882,Khartum,Khartum,Khartum,Khartum,Khartum,Khartum,Khartum,Khartum,331,331,331,330,353,336,335,338,No,0,0
96,Abu Jabra,SDN,26.740,11.066,-,-,-,-,-,-,"12,991","16,632","17,472","18,631","19,678","20,566","21,244","21,711","21,951",6,7,8,8,9,9,9,10,"6,732","6,667",415,296,176,78,"35,259","1,569",Khartum,Khartum,Khartum,Khartum,Khartum,Khartum,Khartum,Khartum,780,781,781,781,778,798,799,802,No,0,0
97,Abu Jubayha,SDN,31.231,11.472,-,-,-,"14,333","28,088","40,942","55,343","55,089","61,276","67,400","73,569","79,623","85,323","90,608","95,341",10,12,14,16,18,20,22,24,"8,874","5,975",597,35,218,37,518,19,Khartum,Khartum,Khartum,Khartum,Khartum,Khartum,Khartum,Khartum,469,469,469,469,479,484,485,488,No,0,0
100,Abu Karinka,SDN,26.545,11.588,-,-,-,-,-,-,-,"11,040","23,100","31,591","41,410","52,514","64,637","77,570","91,039",4,8,13,20,30,40,51,59,"2,189","2,193",76,28,"1,737",683,724,133,Khartum,Khartum,Khartum,Khartum,Khartum,Khartum,Khartum,Khartum,762,762,763,763,758,780,781,784,No,0,0
101,Abu Karshulh Khawr Al-Taina,SDN,30.790,12.150,-,-,-,-,-,-,"17,620","17,539","14,760","15,288","15,626","15,733","15,733","15,733","15,733",3,3,3,3,3,3,3,3,"4,067","4,113",261,139,34,33,770,"1,009",Khartum,Khartum,Khartum,Khartum,Khartum,Khartum,Khartum,Khartum,415,416,416,416,423,432,432,436,No,0,0
103,Abu Kuke,ETH,38.343,9.912,-,-,-,-,-,-,"11,758","13,479","15,452","17,751","20,094","22,425","24,746","27,055","29,313",2,3,3,4,5,6,7,8,541,467,32,849,113,429,135,76,Addis Ababa,Addis Ababa,Addis Ababa,Addis Ababa,Addis Ababa,Addis Ababa,Addis Ababa,Addis Ababa,122,122,124,124,117,116,120,126,No,0,0
104,Urin,EGY,30.695,30.952,-,-,-,-,-,"12,164","14,136","16,052","59,445","63,799","67,770","71,766","75,770","79,388","82,481",1,4,5,5,6,6,7,7,25,47,10,6,19,41,4,57,Cairo,Cairo,Cairo,Cairo,Cairo,Cairo,Cairo,Cairo,109,113,119,122,116,115,120,117,No,104,0
105,Abu Manna Bahri,EGY,32.388,26.158,"18,609","13,511","14,723","16,398","35,139","44,844","55,426","76,195","85,530","91,770","97,457","141,150","148,985","156,844","162,912",11,10,11,12,16,17,19,20,436,288,"1,428",8,11,69,83,35,Cairo,Cairo,Cairo,Cairo,Cairo,Cairo,Cairo,Cairo,454,455,445,445,451,457,458,464,No,105,0
107,Abu Manna Sharq,EGY,32.471,26.184,-,-,-,-,-,"11,416","14,294","16,046","18,013","19,328","20,526","21,731","22,937","24,026","24,956",1,2,2,3,3,3,3,4,"1,183","1,329",114,5,10,7,143,29,Cairo,Cairo,Cairo,Cairo,Cairo,Cairo,Cairo,Cairo,454,454,445,445,451,456,458,462,No,0,0
108,Abu Matariq,SDN,26.205,10.985,-,-,-,-,-,"16,373","20,789","23,425","16,050","16,624","16,992","17,108","17,108","17,108","17,108",7,6,7,7,7,7,7,7,"11,036","10,798",22,"3,732",22,21,148,"12,810",Khartum,Khartum,Khartum,Khartum,Khartum,Khartum,Khartum,Khartum,830,830,831,831,827,848,849,852,No,0,0
121,Abu Sir al-Malaq,EGY,31.091,29.259,-,"10,318","10,860","10,687","13,957","16,420","19,589","32,537","36,437","40,015","43,488","47,106","50,865","54,497","57,888",2,3,3,3,4,4,5,5,38,112,14,14,38,5,83,33,Cairo,Cairo,Cairo,Cairo,Cairo,Cairo,Cairo,Cairo,100,101,91,89,96,104,112,116,No,0,0
122,Abu Sir Bana,EGY,31.232,30.894,-,-,"11,363","13,818","17,065","19,564","22,396","64,139","69,217","80,441","83,756","86,875","89,772","91,984","93,378",7,6,7,7,8,8,8,9,34,34,81,"2,545",46,38,10,213,Cairo,Cairo,Cairo,Cairo,Cairo,Cairo,Cairo,Cairo,85,85,96,94,87,81,81,77,No,122,0
125,Abu Ushar,SDN,33.208,14.923,-,-,-,-,"11,887","17,010","15,641","12,355","14,210","15,897","17,652","19,437","21,189","22,887","24,490",3,4,5,6,7,8,9,10,516,209,104,44,71,13,687,"3,790",Khartum,Khartum,Khartum,Khartum,Khartum,Khartum,Khartum,Khartum,96,96,95,95,119,96,96,97,No,0,0
126,Abu Zabad,SDN,29.231,12.354,-,-,-,-,"13,216","18,517","23,837","24,370","30,102","34,822","39,926","45,342","50,903","56,528","62,088",8,11,13,17,20,24,29,35,"6,019","5,982","1,224",314,41,118,66,"2,169",Khartum,Khartum,Khartum,Khartum,Khartum,Khartum,Khartum,Khartum,492,492,493,493,492,510,511,514,No,0,0
130,Abud,SDN,33.132,14.226,-,-,-,-,-,-,-,"10,692","10,179","10,543","10,776","10,850","10,850","10,850","10,850",4,4,4,4,4,4,4,4,"2,030","2,014",36,87,29,47,"1,827",519,Khartum,Khartum,Khartum,Khartum,Khartum,Khartum,Khartum,Khartum,156,156,156,156,178,163,162,165,No,0,0
132,Abuesi,GHA,-1.649,4.981,-,-,-,-,-,-,"19,330","20,175","27,006",-,-,-,-,-,-,3,5,-,-,-,-,-,-,"4,521","9,168",408,14,416,225,213,-,Accra,Accra,-,-,-,-,-,-,166,184,-,-,-,-,-,-,No,8302,0
133,Abuja,NGA,7.446,9.063,-,"10,201","23,000","50,000","110,000","360,000","1,180,000","1,998,816","3,265,077","3,862,891","4,555,523","5,431,955","6,376,774","7,328,809","8,108,987",416,641,796,991,"1,280","1,613","2,020","2,390",498,644,220,383,439,580,940,776,Abuja,Abuja,-,-,-,-,-,-,-,-,-,-,-,-,-,-,Yes,133,0
134,Abuja Military Areas,NGA,7.260,8.968,-,-,-,-,-,-,-,"10,300","17,724","30,659","35,227","39,989",-,-,-,2,3,5,6,7,-,-,-,105,31,49,632,76,176,180,556,Abuja,Abuja,Abuja,Abuja,Abuja,-,-,-,25,22,22,23,26,-,-,-,No,133,0
135,Abukur,NGA,7.662,12.873,-,-,-,-,-,-,-,"10,566","17,148","19,672","22,370","25,144","27,958","30,707","33,376",1,2,2,3,3,4,5,5,161,123,63,436,"1,819",178,127,375,Abuja,Abuja,Abuja,Abuja,Abuja,Abuja,Abuja,Abuja,420,422,422,422,419,421,421,423,No,0,0
137,Bakongo,COD,22.153,3.683,-,-,-,-,-,-,"18,323","32,200","26,600","26,600","26,600","26,600","26,600","26,600","26,600",5,7,7,7,7,7,7,7,"9,177","6,261","2,813",140,95,94,"1,172",50,Bangui,Bangui,Bangui,Bangui,Bangui,Bangui,Bangui,Bangui,382,383,383,383,383,386,387,386,No,0,0
138,Abuochicie,NGA,8.977,6.753,-,-,-,-,"12,300","17,100","23,700","24,950","31,591","35,787","40,200","44,653","49,081","53,306","57,312",9,12,14,17,20,22,24,26,187,186,28,105,371,600,108,119,Abuja,Abuja,Abuja,Abuja,Abuja,Abuja,Douala,Douala,302,301,299,301,303,302,292,291,No,0,0
139,Abura Dunkwa,GHA,-1.171,5.339,-,-,-,-,-,-,"11,077","11,225","11,719","11,719","11,719","11,719","11,719","11,719","11,719",3,4,4,4,4,4,4,4,756,751,4,10,442,343,536,-,Accra,Accra,Accra,Accra,Accra,Accra,Accra,Accra,104,122,122,104,105,111,112,129,No,0,0
141,Abwan,EGY,30.727,28.399,-,-,-,-,"11,096","13,657","16,707","19,136","21,613","23,947","25,801","27,712","29,677","31,539","33,237",1,1,1,1,1,1,2,2,18,20,12,17,8,19,23,"14,331",Cairo,Cairo,Cairo,Cairo,Cairo,Cairo,Cairo,Cairo,202,203,194,193,198,207,216,219,No,141,0
143,Abyar,EGY,30.864,30.838,"12,784","14,326","16,196","19,013","22,809","26,286","44,050","49,056","80,431","84,260","87,282","90,039","92,501","94,194","94,989",2,9,10,10,10,11,11,11,38,46,"34,020",11,9,59,17,13,Cairo,Cairo,Cairo,Cairo,Cairo,Cairo,Cairo,Cairo,92,92,99,99,93,91,94,91,No,143,0
144,Abyuha,EGY,30.829,27.966,-,-,-,-,-,-,"10,231","11,718","13,179","14,327","15,417","16,538","17,688","18,774","19,761",1,0,0,0,0,1,1,1,11,22,13,35,"1,540","1,409",6,6,Cairo,Cairo,Cairo,Cairo,Cairo,Cairo,Cairo,Cairo,245,247,237,236,242,250,257,261,No,0,0
145,Accra,GHA,-0.078,5.746,"158,196","337,800","624,091","854,659","1,185,614","2,167,932","3,882,529","4,452,483","4,697,074","5,428,055","6,352,321","7,297,964","8,033,324","9,063,289","9,849,882","1,117","1,648","2,007","2,474","2,982","3,460","4,081","4,635","3,396","1,732",101,22,"1,482",17,"7,212",-,Accra,Accra,-,-,-,-,-,-,-,-,-,-,-,-,-,-,Yes,145,0
146,Achaacha,DZA,0.632,36.245,-,-,-,-,-,-,"12,770","13,874","15,878","16,297","16,451","16,451","16,451","16,451","16,451",22,15,15,16,16,16,16,16,"10,481","7,357",763,625,637,"3,461",155,920,Alger,Alger,Alger,Alger,Alger,Alger,Alger,Alger,294,257,267,266,259,259,225,241,No,0,0
147,Achalla,NGA,6.988,6.337,-,-,-,-,-,"11,300","20,300","22,503","13,919","15,805","17,796","19,812","21,826","23,757","25,597",5,5,5,6,7,7,8,8,170,199,223,388,324,"1,260","1,519",247,Abuja,Abuja,Abuja,Abuja,Abuja,Abuja,Abuja,Abuja,308,305,305,306,309,306,306,304,No,0,0
148,Achi 1,NGA,7.369,6.143,-,-,-,-,-,-,-,"35,075","53,260","84,942","96,298","115,834","180,581","197,800","226,603",12,19,30,36,46,69,77,90,175,118,141,"1,620",48,102,396,316,Malabo,Malabo,Malabo,Malabo,Malabo,Malabo,Malabo,Malabo,305,304,303,308,305,304,307,307,No,148,0
149,Achi 2,NGA,7.384,10.053,-,-,-,-,-,-,-,"10,310","12,338","14,158","16,105","18,108","20,140","22,126","24,055",1,1,1,2,2,2,3,3,827,831,580,24,488,134,495,602,Abuja,Abuja,Abuja,Abuja,Abuja,Abuja,Abuja,Abuja,108,110,110,109,107,109,108,109,No,0,0
150,Kashwal,SSD,29.242,7.007,-,-,-,-,-,-,"17,056","22,500","69,000","75,979","83,283","90,751","97,911","104,777","111,135",21,40,45,51,58,65,73,80,"16,120","14,476","10,482",61,"10,762",13,89,34,Juba,Juba,Juba,Juba,Juba,Juba,Juba,Juba,343,342,335,348,349,348,332,349,No,0,0
152,Ada Foah,GHA,0.615,5.780,-,-,-,-,-,-,"12,468","12,644","13,237","20,524","20,524","20,524","20,524","20,524","20,524",4,4,13,13,13,13,13,13,"5,541","3,727",116,46,770,13,"4,631",-,Lomé,Accra,Accra,Lomé,Lomé,Lomé,Accra,Accra,76,73,72,74,87,75,81,65,No,152,0
153,Adaba,ETH,39.390,7.012,-,-,-,-,-,"10,914","13,984","24,560","24,745","28,375","32,066","35,728","39,366","42,978","46,502",7,7,9,11,12,15,17,20,"2,018","2,026","3,486",305,"2,895",336,37,636,Addis Ababa,Addis Ababa,Addis Ababa,Addis Ababa,Addis Ababa,Addis Ababa,Addis Ababa,Addis Ababa,217,217,216,216,224,224,222,213,No,0,0
154,Adakplame,BEN,2.559,7.455,-,-,-,-,-,-,-,"10,120","11,407","13,105","14,939","22,711","24,857","26,968","28,977",2,4,4,5,8,9,10,12,"1,052",557,-,-,-,-,-,-,Porto-Novo,Porto-Novo,Porto-Novo,Cotonou,Cotonou,Cotonou,Cotonou,Cotonou,100,98,97,103,101,101,100,99,No,154,0
155,Adama,ETH,39.269,8.515,-,-,"37,620","65,079","103,523","164,176","254,525","339,924","454,764","609,365","741,934","898,091","1,099,179","1,262,153","1,429,441",49,72,104,141,197,260,317,381,384,296,319,288,55,19,41,234,Addis Ababa,Addis Ababa,Addis Ababa,Addis Ababa,Addis Ababa,Addis Ababa,Addis Ababa,Addis Ababa,64,66,61,62,79,79,81,59,No,155,0
156,Adami Tulu,ETH,38.704,7.855,-,-,-,-,-,-,"10,478","17,040","28,384","32,831","37,405",-,-,-,-,4,6,7,8,-,-,-,-,500,508,299,"2,865",36,"50,633",25,208,Addis Ababa,Addis Ababa,Addis Ababa,Addis Ababa,-,-,-,-,114,114,114,114,-,-,-,-,No,9162,0
157,Adayla,SDN,27.004,11.337,-,-,-,-,"12,754","21,259","27,187","30,856","47,158","59,206","72,843","87,968","104,188","121,235","138,740",8,13,17,24,33,44,54,67,"1,447","1,456",171,964,45,89,50,877,Khartum,Khartum,Khartum,Khartum,Khartum,Khartum,Khartum,Khartum,740,741,742,742,738,758,759,762,No,0,0
158,Adda Daoueni,COM,44.499,-12.299,-,-,-,-,-,-,-,"15,133","17,302",-,-,-,-,-,-,1,2,-,-,-,-,-,-,29,29,701,218,194,358,79,28,Moroni,Moroni,-,-,-,-,-,-,144,144,-,-,-,-,-,-,No,7094,0
159,Addis Ababa,ETH,38.771,8.884,"363,424","541,699","795,900","1,287,595","1,804,507","2,406,005","2,985,585","3,711,329","4,273,817","4,889,613","5,525,170","6,143,413","6,755,739","7,477,625","8,390,477",505,606,728,871,"1,022","1,190","1,428","1,775","1,011",958,36,47,92,101,37,386,Addis Ababa,Addis Ababa,-,-,-,-,-,-,-,-,-,-,-,-,-,-,Yes,159,0
160,Addis Alem 1,ETH,38.392,9.044,-,-,-,-,-,-,"10,729","12,331","14,172","16,318","18,513","20,702",-,-,-,6,6,7,8,9,-,-,-,459,366,89,76,"1,538",110,2,183,Addis Ababa,Addis Ababa,Addis Ababa,Addis Ababa,Addis Ababa,-,-,-,43,44,47,47,27,-,-,-,No,159,0
161,Addis Alem 2,ETH,37.091,11.203,-,-,-,-,-,-,"11,033","11,834","13,175","14,454","15,636","16,687","17,618","18,440","19,135",3,4,5,5,6,6,6,7,405,414,56,47,32,27,22,350,Addis Ababa,Addis Ababa,Addis Ababa,Addis Ababa,Addis Ababa,Addis Ababa,Addis Ababa,Addis Ababa,311,311,313,313,301,300,302,315,No,0,0
162,Addis Kidam,ETH,36.886,11.085,-,-,-,-,-,-,"10,524","28,581","32,893","36,009","38,870","41,386","43,594","45,515","47,112",5,5,6,7,7,8,8,9,512,490,"2,063",29,45,16,69,288,Addis Ababa,Addis Ababa,Addis Ababa,Addis Ababa,Addis Ababa,Addis Ababa,Addis Ababa,Addis Ababa,313,313,316,316,302,302,302,318,No,0,0
163,Ado Awaiye,NGA,3.428,7.830,-,-,-,-,-,-,-,"10,755","10,895","12,447","14,097","15,785","17,487","19,138","20,729",2,2,3,4,4,5,6,7,710,714,43,59,554,316,87,272,Lagos,Lagos,Lagos,Lagos,Lagos,Lagos,Lagos,Lagos,129,130,153,154,154,154,110,109,No,0,0
164,Ade,TCD,21.880,12.679,-,-,-,-,-,-,"13,629","18,453","21,836","25,335","29,020","32,846","36,690","40,573","44,370",0,1,1,1,1,1,1,2,"4,206","4,202",81,277,"13,431",105,"1,281",253,Ndjamena,Ndjamena,Ndjamena,Ndjamena,Ndjamena,Ndjamena,Ndjamena,Ndjamena,713,713,710,715,708,707,711,710,No,0,0
165,Skhirate,MAR,-7.049,33.838,-,-,-,-,"17,018","36,701","51,979","61,267","85,361","95,182","104,738","113,815","122,399",-,-,12,22,26,29,33,37,-,-,"1,922","2,792",197,158,136,680,236,181,Rabat,Rabat,Casablanca,Rabat,Rabat,Casablanca,-,-,25,26,62,66,66,65,-,-,No,7457,0
166,Adebaye,ETH,36.759,14.201,-,-,-,-,-,-,"11,625","13,302","15,221","17,456","19,729","21,985","24,226","26,451","28,622",2,2,3,3,4,4,5,6,"2,759","2,757",108,47,32,46,26,145,Asmara,Asmara,Asmara,Asmara,Asmara,Asmara,Asmara,Asmara,259,259,259,260,259,258,258,257,No,0,0
168,Adeiso,GHA,-0.484,5.794,-,-,-,-,-,-,"16,533","16,790","17,656","17,677","17,677","17,677",-,-,-,3,4,4,4,4,-,-,-,330,246,545,107,294,147,"2,066",-,Accra,Accra,Accra,Accra,Accra,-,-,-,31,42,43,28,28,-,-,-,No,145,0
169,Adele,ETH,39.906,7.789,-,-,-,-,-,-,-,"18,990","20,163","23,123","26,133","29,119","32,086","35,032","37,907",4,4,5,5,6,7,9,10,493,441,57,84,23,"1,173",81,304,Addis Ababa,Addis Ababa,Addis Ababa,Addis Ababa,Addis Ababa,Addis Ababa,Addis Ababa,Addis Ababa,169,169,165,165,182,182,184,165,No,0,0
172,Adet,ETH,37.489,11.256,-,-,-,-,-,"15,004","22,675","40,127","44,183","48,640","52,807","56,561","59,944","62,982","65,617",7,6,7,8,9,10,11,11,659,430,103,130,121,6,24,70,Addis Ababa,Addis Ababa,Addis Ababa,Addis Ababa,Addis Ababa,Addis Ababa,Addis Ababa,Addis Ababa,295,295,297,297,287,287,289,299,No,0,0
173,Adeta,TGO,0.734,7.130,-,-,-,-,-,-,"11,861","32,895","21,133","23,253","25,435","44,953","48,179","51,170","53,799",9,8,9,10,16,18,20,21,804,376,264,93,87,-,-,-,Lomé,Lomé,Lomé,Lomé,Lomé,Lomé,Lomé,Lomé,110,109,100,100,108,100,102,105,No,173,0
175,Adfu,EGY,32.872,24.961,"19,778","24,903","30,425","39,948","49,530","60,718","133,274","165,423","161,482","170,404","177,881","185,003","191,718","228,989","234,001",11,12,13,13,14,15,20,21,225,20,20,9,6,48,8,29,Cairo,Cairo,Cairo,Cairo,Cairo,Cairo,Cairo,Cairo,596,596,581,577,584,589,591,595,No,175,0
176,Adhi Bdo,ERI,36.863,14.962,-,-,-,-,-,-,"12,000","15,000","17,099","19,262","21,748","24,524","27,482","30,527","33,541",2,3,3,4,4,5,6,8,"1,800","1,779",30,16,14,12,685,46,Asmara,Asmara,Asmara,Asmara,Asmara,Asmara,Asmara,Asmara,220,220,220,220,220,219,218,217,No,0,0
179,Adi Gudom,ETH,39.528,13.244,-,-,-,-,-,-,"26,635","27,694","28,797","29,838","30,321","30,321","30,321","30,321","30,321",3,3,3,3,3,3,3,3,"1,824","1,736","2,829",110,144,"2,232",43,115,Asmara,Asmara,Asmara,Asmara,Asmara,Asmara,Asmara,Asmara,239,239,238,238,238,239,239,240,No,0,0
180,Adi Keyih,ERI,39.372,14.847,-,-,-,-,"10,400","15,313","13,318","12,420","14,220","16,024","18,098","20,414","22,882","25,423","27,940",2,2,3,3,4,5,6,7,"3,674","3,586",14,130,29,92,616,420,Asmara,Asmara,Asmara,Asmara,Asmara,Asmara,Asmara,Asmara,70,71,70,70,70,71,71,73,No,0,0
181,Adi Remets,ETH,37.323,13.749,-,-,-,-,-,-,"13,053","13,995","15,005","16,114","17,045","17,763","18,290","18,640","18,804",3,3,3,3,4,4,4,4,"5,096","4,920",638,403,10,95,40,494,Asmara,Asmara,Asmara,Asmara,Asmara,Asmara,Asmara,Asmara,243,243,242,243,243,242,242,241,No,0,0
182,Adi Tekelezan,ERI,38.774,15.574,-,-,-,-,-,"10,508","11,528","12,075","14,850","16,822","19,091","21,629","24,342","27,147","29,937",2,2,2,2,3,4,4,5,"2,171","2,184",33,198,24,161,"1,376",153,Asmara,Asmara,Asmara,Asmara,Asmara,Asmara,Asmara,Asmara,32,31,32,32,32,30,30,29,No,0,0
183,Adiake,CIV,-3.303,5.285,-,-,-,-,"10,229","14,881","17,652","19,583","22,625","23,564","24,289","24,743","24,921","24,921","24,921",4,3,4,4,4,4,4,4,"1,623",428,103,-,-,-,-,-,Abidjan,Abidjan,Abidjan,Abidjan,Abidjan,Abidjan,Abidjan,Abidjan,69,69,67,66,61,61,61,85,No,0,0
185,Adigrat,ETH,39.463,14.299,-,-,-,"14,581","26,618","45,626","66,963","106,169","132,530","163,745","197,616","233,427","271,023","310,209","350,350",17,19,25,33,44,57,69,82,"1,344","1,331",87,35,192,24,172,151,Asmara,Asmara,Asmara,Asmara,Asmara,Asmara,Asmara,Asmara,127,127,127,127,127,128,128,129,No,0,0
186,Adikpo,NGA,9.235,6.884,-,-,-,"16,400","27,000","34,000","42,800","165,847","66,103","75,801","86,163","96,815","107,611","118,150","128,377",20,23,28,33,40,47,53,57,396,401,586,97,54,292,201,"1,655",Abuja,Abuja,Abuja,Abuja,Abuja,Abuja,Douala,Douala,305,304,305,305,306,306,301,300,No,0,0
187,Adina,GHA,1.056,6.019,-,-,-,-,-,-,"10,755","12,108","13,230",-,-,-,-,-,-,2,3,-,-,-,-,-,-,433,409,217,20,122,77,128,-,Lomé,Lomé,-,-,-,-,-,-,27,26,-,-,-,-,-,-,No,5316,0
188,Adiquala,ERI,38.833,14.639,-,-,-,-,-,-,-,"10,620","15,000","18,619","21,289","24,284","27,499","30,841","102,752",2,3,5,6,8,9,11,52,"2,868","1,853",34,29,378,9,703,46,Asmara,Asmara,Asmara,Asmara,Asmara,Asmara,Asmara,Asmara,77,77,77,78,77,78,78,78,No,188,0
189,Adis Zemen,ETH,37.780,12.123,-,-,-,-,"11,905","15,131","19,083","25,300","27,630","30,608","33,442","36,051","38,459","40,679","42,671",3,3,3,4,4,5,5,6,770,765,"1,054",335,91,"2,114",146,225,Addis Ababa,Addis Ababa,Asmara,Addis Ababa,Addis Ababa,Addis Ababa,Addis Ababa,Asmara,373,373,374,374,368,368,371,374,No,0,0
190,Adishohu,ETH,39.519,12.933,-,-,-,-,-,-,-,"17,632","18,023","20,446","22,871","25,234","27,545","29,804","31,971",2,1,2,2,2,3,3,3,"1,619","1,608",77,392,92,151,101,248,Asmara,Asmara,Asmara,Asmara,Asmara,Asmara,Asmara,Asmara,272,272,271,271,271,272,272,273,No,0,0
191,Adja Tokpa I,BEN,1.984,6.462,-,-,-,-,-,-,-,"22,519","35,931","37,779","39,235","40,121","40,436","40,436","40,436",6,11,12,13,13,13,13,13,208,221,-,-,-,-,-,-,Cotonou,Cotonou,Cotonou,Cotonou,Cotonou,Cotonou,Cotonou,Cotonou,40,37,41,33,33,33,32,29,No,0,0
192,Adjaglimey,BEN,1.939,6.895,-,-,-,-,-,-,-,"13,998","23,059","29,094","34,281","39,883","47,786","62,317","73,986",2,4,5,7,9,12,15,18,370,253,-,-,-,-,-,-,Cotonou,Cotonou,Cotonou,Cotonou,Cotonou,Cotonou,Cotonou,Cotonou,62,57,55,54,53,52,51,48,No,192,0
193,Adjaha,BEN,2.409,8.302,-,-,-,-,-,-,-,"11,920","13,998","17,206","20,846","24,852","29,224","33,893","38,723",0,1,1,2,2,3,4,4,966,904,-,-,-,-,-,-,Porto-Novo,Porto-Novo,Porto-Novo,Cotonou,Cotonou,Cotonou,Lagos,Cotonou,195,193,192,194,192,192,191,189,No,0,0
194,Adjamene,CIV,-6.842,4.766,-,-,-,-,-,-,-,"10,812","12,949","14,737","16,636","18,599","20,618","22,653","24,697",2,2,3,3,4,4,5,6,"2,187",340,"14,646",-,-,-,-,-,Abidjan,Abidjan,Abidjan,Abidjan,Abidjan,Abidjan,Abidjan,Abidjan,307,307,305,306,311,312,312,296,No,0,0
195,Adjegounle,BEN,2.610,6.821,-,-,-,-,-,-,"10,663","13,714","15,995","19,477","23,410","27,716","32,399","49,900",-,2,4,6,8,10,14,20,-,332,206,-,-,-,-,-,-,Porto-Novo,Porto-Novo,Porto-Novo,Cotonou,Cotonou,Cotonou,Cotonou,-,30,28,29,42,41,41,41,-,No,7345,0
196,Adjengre,TGO,1.017,8.662,-,-,-,-,-,"11,263","15,216","17,382","20,617","23,718","27,093","30,686","38,990","43,063","47,035",6,6,8,9,11,15,18,21,"1,861","1,836",252,23,201,-,-,-,Lomé,Lomé,Lomé,Lomé,Lomé,Lomé,Lomé,Lomé,269,269,263,263,263,261,260,260,No,196,0
198,Adjumani,UGA,31.783,3.373,-,-,-,-,-,"13,126","32,889","43,272","52,367","60,178","68,294","76,353","84,176","106,826","114,961",15,20,24,28,34,39,54,62,"3,445","1,499",48,155,153,"1,322","2,754",133,Juba,Juba,Juba,Juba,Juba,Juba,Juba,Juba,165,163,166,162,162,161,165,161,No,198,0
200,Ado Boelo,ETH,39.265,7.257,-,-,-,-,-,-,"11,299","12,595","14,867","17,106","19,394","21,674","23,949","26,217","28,439",1,1,2,2,2,3,3,4,554,562,441,88,19,"1,152",12,456,Addis Ababa,Addis Ababa,Addis Ababa,Addis Ababa,Addis Ababa,Addis Ababa,Addis Ababa,Addis Ababa,187,187,186,185,193,193,191,183,No,0,0
201,Ado Ekiti,NGA,5.204,7.625,"23,465","106,046","123,000","144,000","167,000","240,000","346,000","382,239","555,388","644,914","776,876","1,054,754","1,184,737","1,419,320","1,577,051",85,108,133,170,238,287,379,449,193,194,219,595,696,395,299,327,Lagos,Lagos,Lagos,Lagos,Lagos,Lagos,Lagos,Lagos,224,230,208,205,203,199,212,203,No,201,0
203,Adoagyiri,GHA,-0.364,5.814,-,-,-,-,"12,081","13,058","19,472","21,205","33,890",-,-,-,-,-,-,5,21,-,-,-,-,-,-,409,459,505,5,739,7,"2,100",-,Accra,Accra,-,-,-,-,-,-,23,31,-,-,-,-,-,-,No,145,0
205,Adogo Gari,NGA,5.241,10.102,-,-,-,-,"11,700","15,000","19,300","19,294","15,125","17,394","19,827","22,337","24,891","27,396","29,837",2,2,2,3,3,4,5,6,352,321,143,52,663,543,225,"1,264",Abuja,Abuja,Abuja,Abuja,Abuja,Abuja,Abuja,Abuja,258,257,257,257,258,256,256,238,No,0,0
206,Iloshi,NGA,6.472,7.516,-,-,-,"12,800","18,700","22,000","25,800","29,920","20,817","23,675","26,698","29,768","32,842","35,799","38,626",5,7,8,10,12,14,16,17,875,491,48,53,206,46,775,183,Abuja,Abuja,Abuja,Abuja,Abuja,Abuja,Abuja,Abuja,202,199,199,200,203,200,200,191,No,0,0
207,Adoka,NGA,7.979,7.453,-,-,-,-,-,"12,800","18,500","27,090","20,418","23,414","26,614","29,904","33,239","36,494","39,653",4,4,4,5,6,7,9,10,260,265,166,116,890,426,102,145,Abuja,Abuja,Abuja,Abuja,Abuja,Abuja,Abuja,Abuja,188,186,186,186,189,187,187,194,No,0,0
208,Adola,ETH,38.988,5.881,-,-,-,"12,555","17,553","21,380","33,270","34,924","36,661","38,425","39,565","40,018","40,018","40,018","40,018",8,9,10,10,10,10,10,10,"3,480","3,461","2,063","2,231",649,23,22,"2,974",Addis Ababa,Addis Ababa,Addis Ababa,Addis Ababa,Addis Ababa,Addis Ababa,Addis Ababa,Addis Ababa,333,333,334,334,336,336,332,331,No,0,0
211,Adoumri,CMR,13.771,9.251,-,-,-,-,-,-,"10,016","11,614","14,869","17,926","21,300","24,953","28,907","33,027","37,308",2,2,3,3,4,6,7,8,696,709,"2,717","14,975",404,231,63,31,Ndjamena,Ndjamena,Ndjamena,Ndjamena,Ndjamena,Ndjamena,Ndjamena,Ndjamena,348,346,346,347,347,348,347,347,No,0,0
214,Adrar,DZA,-0.312,27.892,-,-,-,"10,278","32,061","44,578","60,544","73,350","92,307","106,955","121,116","134,847","148,802","163,276","177,730",28,39,48,57,67,76,84,91,"86,092","54,701",66,186,372,236,410,"1,964",Rabat,Rabat,Rabat,Rabat,Rabat,Rabat,Rabat,Rabat,965,965,970,970,970,970,965,965,No,0,0
215,Adre,TCD,22.199,13.462,-,-,-,-,-,"11,033","16,224","19,674","23,412","27,311","31,447","35,773","40,155","44,614","49,009",8,8,10,12,15,18,22,24,"1,086","1,048",59,287,"1,025",595,499,104,Ndjamena,Ndjamena,Ndjamena,Ndjamena,Ndjamena,Ndjamena,Ndjamena,Ndjamena,758,758,755,760,753,752,756,755,No,0,0
216,Aduel,SSD,29.862,6.567,-,-,-,-,-,-,"25,926","34,200","42,988","47,336","51,887","56,539","61,000",-,-,44,72,79,87,95,102,-,-,"5,560","6,127",340,750,459,258,31,156,Juba,Juba,Juba,Juba,Juba,Juba,-,-,258,262,253,267,267,269,-,-,No,7577,0
217,Adwa,ETH,38.889,14.176,-,"11,782","15,230","16,525","19,399","30,886","47,078","71,865","96,801","118,562","142,056","166,783","192,644","219,515","246,956",13,13,17,23,30,39,47,55,891,882,208,"1,284",22,52,48,510,Asmara,Asmara,Asmara,Asmara,Asmara,Asmara,Asmara,Asmara,128,128,127,128,128,128,128,128,No,0,0
218,Adzope,CIV,-3.859,6.102,-,"10,313","24,549","27,620","36,809","45,202","54,553","60,349","81,975","102,062","124,478","148,845","175,061","202,666","231,521",12,17,23,31,42,55,67,82,657,520,32,-,-,-,-,-,Abidjan,Abidjan,Abidjan,Abidjan,Abidjan,Abidjan,Abidjan,Abidjan,83,82,94,94,94,94,94,75,No,0,0
219,Aït ishaq,MAR,-5.727,32.751,-,-,-,-,-,"11,213","12,502","12,207","12,224","12,224","12,224","12,224","12,224","12,224","12,224",1,2,2,2,2,2,2,2,"2,060","2,190",819,136,843,609,170,256,Rabat,Rabat,Rabat,Rabat,Rabat,Rabat,Rabat,Rabat,178,182,190,190,190,190,178,178,No,0,0
220,Af Abeb,ERI,38.689,16.189,-,-,-,-,-,"38,981","42,897","45,000","59,760","68,050","77,593","88,287","99,752","111,642","123,524",8,11,13,15,19,23,28,33,"8,423","8,496",53,10,19,13,890,807,Asmara,Asmara,Asmara,Asmara,Asmara,Asmara,Asmara,Asmara,98,98,99,99,99,97,97,96,No,0,0
221,Afagnagan,TGO,1.634,6.492,-,-,-,-,-,-,"25,290","35,219","33,854","40,521","45,051","47,404","49,375","50,892","51,860",7,9,11,12,13,14,14,15,177,199,296,17,221,-,-,-,Lomé,Lomé,Lomé,Lomé,Lomé,Lomé,Lomé,Lomé,57,56,60,59,43,59,50,41,No,221,0
223,Affery,CIV,-3.954,6.322,-,-,-,"15,448","17,682","21,154","21,472","22,380","35,330","44,953","55,761","67,579","80,358","93,879","123,834",5,5,7,10,14,18,23,31,736,616,236,-,-,-,-,-,Abidjan,Abidjan,Abidjan,Abidjan,Abidjan,Abidjan,Abidjan,Abidjan,105,105,118,118,118,118,118,97,No,223,0
224,Afgoye,SOM,45.116,2.142,-,"14,917","13,942","14,259","20,134","28,429","40,142","47,700","49,500","51,029","51,663","51,663","51,663","51,663",-,6,6,6,7,7,7,7,-,"1,819","1,820",14,72,44,30,401,308,Mogadishu,Mogadishu,Mogadishu,Mogadishu,Mogadishu,Mogadishu,Mogadishu,-,25,22,21,21,21,20,20,-,No,6180,0
225,Afikpo,NGA,7.946,5.870,"25,000","35,425","46,000","59,000","76,900","80,000","82,500","82,500","92,610","106,047","120,380","135,086","149,962","229,420","248,989",14,17,20,24,29,34,49,57,133,78,639,137,73,531,561,133,Malabo,Malabo,Malabo,Malabo,Malabo,Malabo,Malabo,Douala,252,251,251,251,251,252,255,258,No,225,0
227,Aflou,DZA,2.100,34.108,-,-,"10,639","19,203","34,221","52,920","83,810","117,439","164,561","208,773","253,673","298,740","345,302","394,045","443,354",10,11,16,21,28,36,43,51,"3,770","3,812",131,"3,571",136,121,410,387,Alger,Alger,Alger,Alger,Alger,Alger,Alger,Alger,315,301,309,309,305,305,290,291,No,0,0
228,Afmadow,SOM,42.073,0.519,-,-,-,-,-,-,"10,268","12,300","20,300","30,343","42,473","56,593","72,603","90,307","109,924",2,3,5,9,14,21,30,40,"19,145","11,634",18,13,25,60,118,272,Mogadishu,Mogadishu,Mogadishu,Mogadishu,Mogadishu,Mogadishu,Mogadishu,Mogadishu,379,377,376,376,376,376,375,376,No,0,0
229,Afosu,GHA,-0.998,6.350,-,-,-,-,-,-,"16,913","17,086","17,665","17,665","17,665","17,665","17,665","17,665","17,665",6,7,7,7,7,7,7,7,884,888,410,302,698,222,426,-,Kumasi,Kumasi,Kumasi,Kumasi,Kumasi,Kumasi,Kumasi,Kumasi,74,74,75,73,73,73,73,73,No,0,0
230,Afourar,MAR,-6.635,32.219,-,-,-,-,-,"11,685","12,106","21,485","33,625","36,580","39,367","41,930","44,282","46,392","48,194",4,10,11,12,14,15,16,17,526,454,121,"1,544",656,77,502,90,Casablanca,Casablanca,Casablanca,Casablanca,Casablanca,Casablanca,Casablanca,Casablanca,188,180,188,189,189,188,188,188,No,0,0
231,Afukpilla/Kominio,NGA,6.377,7.291,-,-,-,-,-,-,-,"21,800","12,938",-,-,-,-,-,-,2,3,-,-,-,-,-,-,400,409,60,114,50,736,329,234,Abuja,Abuja,-,-,-,-,-,-,228,225,-,-,-,-,-,-,No,7046,0
232,Afuze,NGA,6.042,6.974,-,-,-,-,-,"11,800","17,300","41,724","12,449","14,094","15,822","17,565","24,119","26,180","28,132",6,8,9,10,11,15,16,18,418,424,797,276,580,"1,183",179,678,Abuja,Abuja,Lagos,Lagos,Lagos,Lagos,Abuja,Abuja,276,273,256,251,250,243,274,264,No,232,0
233,Aga,EGY,31.292,30.945,-,-,"11,645","13,584","14,480","16,206","37,001","42,080","45,230","48,152","50,728","53,267","55,754","57,900","59,612",3,3,3,3,3,4,4,4,37,50,5,19,45,"1,169",10,323,Cairo,Cairo,Cairo,Cairo,Cairo,Cairo,Cairo,Cairo,90,90,99,100,94,87,85,81,No,0,0
234,Agadez,NER,7.985,16.971,-,-,"12,333","25,749","52,862","74,464","102,170","119,502","139,454","159,313","179,738","199,766","218,350","234,380","246,910",22,41,49,58,68,78,87,91,"118,861","84,024",117,314,225,-,-,-,Niamey,Niamey,Niamey,Niamey,Niamey,Niamey,Niamey,Niamey,721,722,720,724,722,716,720,720,No,0,0
235,Agadir,MAR,-9.519,30.326,"29,810","16,695","52,795","179,070","360,305","610,008","780,006","978,629","1,241,584","1,383,605","1,521,714","1,652,819","1,776,746","2,295,035","2,538,422",108,132,153,175,198,221,449,519,"1,513",878,189,253,441,106,356,257,Casablanca,Casablanca,Casablanca,Casablanca,Casablanca,Casablanca,Casablanca,Casablanca,407,407,411,417,417,417,414,414,No,235,0
236,Agaie,NGA,6.324,9.005,-,-,-,"11,800","16,600","23,700","33,900","39,435","55,583","63,923","72,863","82,088","91,474","100,678","109,648",5,6,8,9,11,13,15,18,"1,262","1,282",278,482,75,174,"1,270",68,Abuja,Abuja,Abuja,Abuja,Abuja,Abuja,Abuja,Abuja,119,117,117,117,120,117,116,96,No,0,0
237,Agareb,TUN,10.521,34.745,-,-,-,-,-,-,"10,749","11,720","19,872","20,660","21,220","21,606","21,873","22,056","22,155",4,3,3,3,3,3,3,3,"2,266","1,397",277,953,407,356,464,266,Tunis,Tunis,Tunis,Tunis,Tunis,Tunis,Tunis,Tunis,229,210,233,234,232,232,231,231,No,0,0
238,Agarfa,ETH,39.824,7.271,-,-,-,-,-,-,-,"16,366","16,547","19,082","21,678","24,275","26,872","29,468","32,018",6,7,9,10,11,12,13,14,"1,498","1,359","1,473",403,49,578,13,690,Addis Ababa,Addis Ababa,Addis Ababa,Addis Ababa,Addis Ababa,Addis Ababa,Addis Ababa,Addis Ababa,209,209,207,207,219,220,220,205,No,0,0
239,Agaro,ETH,36.584,7.844,-,-,"11,590","18,252","21,298","24,239","29,408","74,981","105,114","125,786","147,757","170,539","194,073","218,268","242,724",15,17,22,27,34,43,53,61,506,506,29,133,44,107,44,534,Addis Ababa,Addis Ababa,Addis Ababa,Addis Ababa,Addis Ababa,Addis Ababa,Addis Ababa,Addis Ababa,256,255,257,257,240,240,234,259,No,0,0
240,Agat K. 13,ETH,38.479,11.611,-,-,-,-,-,-,"10,153","10,891","12,130","13,310","14,401","15,371","16,232","16,992","17,636",2,2,2,2,3,3,3,3,"1,321","1,236","1,192",34,34,286,5,340,Addis Ababa,Addis Ababa,Addis Ababa,Addis Ababa,Addis Ababa,Addis Ababa,Addis Ababa,Addis Ababa,304,303,304,303,302,302,306,306,No,0,0
241,Ago Are,NGA,3.426,8.503,-,-,-,-,"11,400","17,900","28,000","35,223","17,685","20,204","22,883","25,623","28,385",-,-,5,5,6,8,9,11,-,-,442,437,93,177,41,336,927,153,Lagos,Lagos,Lagos,Lagos,Lagos,Lagos,-,-,203,204,227,228,228,227,-,-,No,8429,0
247,Agbogugu,NGA,7.474,6.253,-,-,-,-,-,-,-,"11,935","16,620","19,006","21,547","24,149","26,777","29,330",-,3,3,3,4,5,6,7,-,221,158,63,118,470,302,"2,274",262,Malabo,Malabo,Malabo,Malabo,Malabo,Malabo,Malabo,-,310,309,309,308,309,308,311,-,No,6869,0
249,Agbor,NGA,6.163,6.261,-,-,"12,000","26,000","57,700","77,500","104,000","146,486","209,170","238,205","268,964","300,271","336,226","403,474","437,620",41,55,65,78,92,111,145,167,298,689,115,"2,068",154,141,289,635,Lagos,Lagos,Lagos,Lagos,Lagos,Lagos,Lagos,Lagos,304,307,267,259,259,258,296,287,No,249,0
250,Agboville,CIV,-4.210,5.924,-,"14,117","25,811","33,872","47,878","54,965","51,602","58,548","91,975","109,174","127,993","148,063","169,296","191,302","213,984",11,16,20,26,32,41,51,59,679,605,115,-,-,-,-,-,Abidjan,Abidjan,Abidjan,Abidjan,Abidjan,Abidjan,Abidjan,Abidjan,67,67,79,80,81,81,81,52,No,0,0
251,Agbozounkpa,BEN,2.273,6.922,-,-,-,-,-,-,"15,032","17,523","19,377","21,357","23,356","25,280","27,128","28,849","30,362",2,5,5,6,7,7,8,9,520,446,-,-,-,-,-,-,Cotonou,Cotonou,Cotonou,Cotonou,Cotonou,Cotonou,Cotonou,Cotonou,48,43,42,42,39,39,38,36,No,0,0
252,Agdz,MAR,-6.448,30.711,-,-,-,-,-,-,-,"10,920","18,135","21,337","24,559","27,723","30,803","33,743","36,446",3,4,6,7,8,10,12,14,"8,881","8,223",147,112,231,"1,773",452,180,Casablanca,Casablanca,Casablanca,Casablanca,Casablanca,Casablanca,Casablanca,Casablanca,339,337,345,344,341,341,340,340,No,0,0
253,Ado/Isalu/Iyafin,NGA,2.943,6.528,-,-,-,-,-,-,-,"37,404","200,216",-,-,-,-,-,-,19,49,-,-,-,-,-,-,90,278,159,982,456,89,166,527,Porto-Novo,Porto-Novo,-,-,-,-,-,-,39,31,-,-,-,-,-,-,No,5199,0
255,Agena,ETH,37.966,8.151,-,-,-,-,-,-,"12,684","14,155","15,797","17,691","19,541","21,297","22,969","24,562","26,048",3,3,4,4,5,5,6,6,789,578,82,480,42,69,41,376,Addis Ababa,Addis Ababa,Addis Ababa,Addis Ababa,Addis Ababa,Addis Ababa,Addis Ababa,Addis Ababa,117,117,119,119,103,104,97,117,No,0,0
256,Agenebode,NGA,6.689,7.102,-,-,-,"13,300","19,900","26,800","36,000","49,140","21,071","23,855","26,780","29,730","32,659","35,450","38,093",6,9,11,12,13,15,16,17,780,619,96,160,104,519,"1,649",890,Abuja,Abuja,Abuja,Abuja,Abuja,Abuja,Abuja,Abuja,233,231,230,231,235,232,232,226,No,0,0
260,Agnam Thiodaye,SEN,-13.657,15.989,-,-,-,-,-,-,-,"12,747","15,900","18,315","20,900","23,655","26,591","29,612","32,738",3,3,4,5,6,7,9,11,"5,773","5,133",-,-,-,-,-,-,Nouakchott,Nouakchott,Nouakchott,Nouakchott,Nouakchott,Nouakchott,Nouakchott,Nouakchott,336,331,330,329,329,329,329,329,No,0,0
261,Agnibilekrou,CIV,-3.207,7.137,-,-,-,"17,580","26,058","34,449","44,106","49,958","63,660","76,018","89,583","104,093","119,485","135,480","152,004",10,14,18,23,30,38,47,54,"2,457","1,706",689,-,-,-,-,-,Kumasi,Kumasi,Kumasi,Kumasi,Kumasi,Kumasi,Kumasi,Kumasi,172,172,172,176,175,175,175,175,No,0,0
262,Ago Amadu,NGA,3.643,8.625,-,-,-,"12,000","16,900","28,900","49,500","55,281","24,180","27,624","31,287","35,033","38,810","42,473","46,006",6,7,8,9,11,13,16,18,"1,215","1,193",641,784,397,361,228,"1,926",Lagos,Lagos,Lagos,Lagos,Lagos,Lagos,Lagos,Lagos,219,220,239,239,239,239,199,197,No,0,0
264,Agosasa,NGA,2.761,6.547,-,-,"11,400","21,800","41,600","44,400","47,300","82,000","78,714","90,753","103,693","117,088",-,-,-,23,33,40,46,52,-,-,-,162,149,88,"4,473",35,338,103,112,Porto-Novo,Porto-Novo,Porto-Novo,Porto-Novo,Porto-Novo,-,-,-,19,14,13,21,20,-,-,-,No,5199,0
265,Agogo,GHA,-1.088,6.795,-,"10,400","14,710","17,580","21,965","28,271","36,230","39,427","44,296","47,841","51,181","54,300","57,138","59,740","61,876",8,9,10,10,11,12,13,14,"1,561","1,424",551,5,566,795,"2,964",-,Kumasi,Kumasi,Kumasi,Kumasi,Kumasi,Kumasi,Kumasi,Kumasi,57,58,58,51,51,52,51,51,No,0,0
266,Agon,BEN,2.229,6.846,-,-,-,-,-,-,-,"16,034","17,585","19,243","20,887","22,430","23,871","25,167",-,3,6,6,7,8,9,9,-,257,175,-,-,-,-,-,-,Cotonou,Cotonou,Cotonou,Cotonou,Cotonou,Cotonou,Cotonou,-,40,36,35,34,32,32,31,-,No,2505,0
267,Agona,GHA,-1.495,6.927,-,-,-,-,-,-,"10,955","13,984","16,054","17,577",-,-,-,-,-,4,5,6,-,-,-,-,-,230,70,136,29,172,140,248,-,Kumasi,Kumasi,Kumasi,-,-,-,-,-,31,31,32,-,-,-,-,-,No,5112,0
268,Agona Kwanyako,GHA,-0.638,5.588,-,-,-,-,-,-,"10,976","12,241","12,450",-,-,-,-,-,-,2,4,-,-,-,-,-,-,237,206,22,10,191,292,"5,806",-,Accra,Accra,-,-,-,-,-,-,44,61,-,-,-,-,-,-,No,145,0
269,Agona nkwanta,GHA,-1.963,4.895,-,-,-,-,-,"10,031","14,104","16,276","19,854","22,863","25,982","29,183",-,-,-,5,13,16,19,23,-,-,-,"10,138","11,087",187,15,117,717,726,-,Accra,Kumasi,Kumasi,Accra,Accra,-,-,-,200,200,201,199,199,-,-,-,No,8302,0
270,Agona Nsaba,GHA,-0.751,5.644,-,-,-,-,-,-,-,"10,438","20,134","20,892","21,436","21,771","21,891",-,-,1,6,6,7,7,7,-,-,149,146,106,11,63,64,169,-,Accra,Accra,Accra,Accra,Accra,Accra,-,-,55,71,71,53,54,60,-,-,No,145,0
271,Agona Nyakrom,GHA,-0.774,5.612,-,"13,500","11,252","11,527","13,037","15,750","18,745","20,521","21,995","23,253","24,338","25,249","25,969","26,526",-,1,5,5,6,6,6,6,-,109,107,279,5,178,346,561,-,Accra,Accra,Accra,Accra,Accra,Accra,Accra,-,59,74,75,57,58,64,65,-,No,145,0
272,Agona Swedru,GHA,-0.688,5.544,"11,895","18,300","21,522","28,076","35,994","45,614","56,080","101,476","147,959","181,682","203,413",-,-,-,-,17,48,61,72,-,-,-,-,138,188,25,5,261,98,"2,464",-,Accra,Accra,Accra,Accra,-,-,-,-,52,67,67,49,-,-,-,-,No,145,0
275,Agourai,MAR,-5.591,33.643,-,-,-,-,-,"11,794","15,130","16,935","20,506","22,799","25,024","27,132","29,119","30,957","32,585",3,3,4,4,5,5,6,6,"1,439","1,382",305,71,"1,068",178,761,157,Rabat,Rabat,Rabat,Rabat,Rabat,Rabat,Rabat,Rabat,136,139,127,126,127,127,145,145,No,0,0
277,Aguelmous,MAR,-5.842,33.158,-,-,-,-,-,"10,335","12,648","14,412","16,598","18,185","19,699","21,106","22,412","23,598","24,626",2,3,3,3,4,4,4,5,"1,765","1,745",233,180,582,910,163,228,Rabat,Rabat,Rabat,Rabat,Rabat,Rabat,Rabat,Rabat,138,142,146,146,146,146,140,140,No,0,0
278,Aguie,NER,7.780,13.501,-,-,-,-,-,"10,914","15,892","19,044","23,973","29,562","36,028","43,298","51,235","59,623","68,201",3,4,5,7,10,14,17,20,792,762,272,265,536,-,-,-,Abuja,Abuja,Abuja,Abuja,Abuja,Abuja,Abuja,Abuja,490,492,493,492,489,491,491,493,No,0,0
280,Agumu Koshi,NGA,4.359,10.522,-,-,-,-,-,-,-,"12,025","13,380","15,388","17,540","19,760","22,020","24,235","26,395",2,2,3,3,4,5,6,7,"4,643","3,589",84,63,50,759,104,127,Abuja,Abuja,Abuja,Abuja,Abuja,Abuja,Abuja,Abuja,361,360,359,360,360,359,358,340,No,0,0
281,Agwa,NGA,6.921,4.983,-,-,-,-,-,-,"12,700","29,602","53,758","97,084",-,-,-,-,-,7,10,18,-,-,-,-,-,159,106,120,78,364,157,463,426,Malabo,Malabo,Malabo,-,-,-,-,-,237,236,237,-,-,-,-,-,No,7098,0
283,Aha,NGA,3.509,8.587,-,-,-,-,-,-,-,"18,994","13,807","15,774","17,865","20,004","22,161","24,253","26,270",3,4,5,6,7,8,9,11,261,264,236,118,84,208,96,49,Lagos,Lagos,Lagos,Lagos,Lagos,Lagos,Lagos,Lagos,213,214,235,235,235,235,193,192,No,0,0
284,Ahaba,NGA,7.537,5.733,-,-,-,-,-,-,-,"22,875","29,086","33,156","37,474","41,875","46,297","50,571","54,675",8,8,10,11,14,16,19,21,203,127,197,605,89,642,949,172,Malabo,Malabo,Malabo,Malabo,Malabo,Malabo,Malabo,Malabo,256,256,258,253,253,255,257,259,No,0,0
285,Ahépé,TGO,1.396,6.607,-,-,"10,528",-,-,-,"19,426","29,622","30,814","32,532","34,057","35,303","36,172","36,617","36,617",8,10,11,12,13,13,13,13,240,150,471,131,711,-,-,-,Lomé,Lomé,Lomé,Lomé,Lomé,Lomé,Lomé,Lomé,48,48,48,46,37,45,39,33,No,0,0
287,Ahfir,MAR,-2.102,34.950,-,"10,794","12,200","16,056","19,254","19,912","19,567","19,641","33,333","33,333","33,333","33,333","33,333","33,333","33,333",5,9,9,9,9,9,9,9,"1,612",549,214,167,"2,149",173,329,61,Rabat,Rabat,Rabat,Rabat,Rabat,Rabat,Rabat,Rabat,510,512,480,480,480,480,523,523,No,0,0
288,Ahigbe-Koffikro,CIV,-3.386,5.403,-,-,-,-,-,-,"12,290","15,342","21,607","21,607","21,607","21,607","21,607","21,607","21,607",1,2,2,2,2,2,2,2,709,496,"96,236",-,-,-,-,-,Abidjan,Abidjan,Abidjan,Abidjan,Abidjan,Abidjan,Abidjan,Abidjan,60,60,59,58,54,53,53,73,No,0,0
289,Ahmar Mawjy,SDN,34.271,12.407,-,-,-,-,-,-,"10,404","12,317","13,892","15,390","16,921","18,450","19,919","21,311",-,4,5,5,6,7,8,9,-,479,207,60,"3,700",35,38,97,"2,252",Khartum,Khartum,Khartum,Khartum,Khartum,Khartum,Khartum,-,389,389,389,389,411,394,393,-,No,3334,0
290,Ahmed Rachedi,DZA,6.130,36.391,-,-,-,-,-,-,"10,676","11,229","11,811","11,993","11,993","11,993","11,993","11,993","11,993",1,1,1,1,1,1,1,1,279,271,196,642,637,44,26,24,Alger,Alger,Alger,Alger,Alger,Alger,Alger,Alger,292,329,322,321,327,327,360,343,No,0,0
291,Ahmer El Ain,DZA,2.565,36.471,-,-,-,-,-,"11,298","14,575","16,752","18,121","18,973","19,555","19,949","20,264","20,541","20,746",2,1,2,2,2,2,2,2,147,144,198,701,349,550,235,30,Alger,Alger,Alger,Alger,Alger,Alger,Alger,Alger,89,53,63,64,57,57,27,38,No,0,0
292,Ahnasya,EGY,30.947,29.087,"11,282","12,797","14,967","18,704","29,082","37,662","54,464","73,773","82,857","91,083","99,078","107,421","116,095","124,490","132,347",4,3,3,4,4,5,5,6,23,26,12,626,7,23,6,25,Cairo,Cairo,Cairo,Cairo,Cairo,Cairo,Cairo,Cairo,123,124,115,114,119,129,137,141,No,0,0
293,Ahnasya al-Khadra,EGY,31.021,29.092,-,-,-,-,-,"11,409","14,576","17,027","18,930",-,-,-,-,-,-,1,1,-,-,-,-,-,-,18,48,10,14,"4,274",12,591,14,Cairo,Cairo,-,-,-,-,-,-,119,121,-,-,-,-,-,-,No,1637,0
294,Ahoada,NGA,6.652,5.080,-,-,-,-,"12,100","18,700","29,000","43,940","96,237","109,833","124,276","155,859","172,503","188,621","204,135",9,11,13,15,20,24,28,33,167,93,68,318,53,"1,457",271,685,Malabo,Malabo,Malabo,Malabo,Malabo,Malabo,Malabo,Malabo,267,265,265,264,263,263,263,261,No,294,0
295,Ahomey Glon,BEN,2.407,6.542,-,-,-,-,-,-,-,"14,258","15,665","17,060","18,422","19,674","20,817","21,812","22,603",0,0,0,1,1,1,1,1,111,66,-,-,-,-,-,-,Cotonou,Cotonou,Cotonou,Cotonou,Cotonou,Cotonou,Cotonou,Cotonou,7,7,8,9,10,10,11,15,No,0,0
298,Aidu,NGA,7.333,12.261,-,-,-,-,"11,300","12,300","13,300","15,652","34,177","39,207","44,584","50,114","55,723","61,201","66,521",2,3,3,4,5,5,7,8,"1,236",248,22,184,128,110,372,198,Abuja,Abuja,Abuja,Abuja,Abuja,Abuja,Abuja,Abuja,352,354,354,353,351,353,352,352,No,0,0
300,Ain Kechera,DZA,6.435,36.750,-,-,-,-,-,"10,667","13,314","14,177","20,725","21,337","21,610","21,648","21,648","21,648","21,648",5,4,4,4,4,4,4,4,285,290,388,323,992,550,"1,513",40,Alger,Alger,Alger,Alger,Alger,Alger,Tunis,Alger,322,360,351,350,357,357,390,374,No,0,0
301,Ain Abid,DZA,6.944,36.234,-,-,-,-,"12,093","18,391","24,430","27,226","30,342","32,732","34,754","36,510","38,192","39,877","41,474",4,4,4,4,5,5,5,6,474,475,169,623,"1,720",550,"2,050",44,Tunis,Tunis,Tunis,Tunis,Tunis,Tunis,Tunis,Tunis,347,386,342,341,342,342,342,342,No,0,0
302,Ain Arnat,DZA,5.312,36.183,-,-,-,-,-,"14,535","19,338","23,472","30,656","35,557","40,299","44,900","49,578","54,430","59,277",7,7,9,11,13,15,17,20,434,345,"10,256",838,309,550,"2,050",44,Alger,Alger,Alger,Alger,Alger,Alger,Alger,Alger,212,248,242,240,246,247,278,261,No,0,0
304,Ain Azel,DZA,5.516,35.819,-,-,-,"11,031","20,667","31,316","37,122","40,634","45,290","48,436","50,997","53,138","55,144","57,125","58,961",7,8,9,10,10,11,11,12,460,487,"1,058","75,839",217,162,410,"1,369",Alger,Alger,Alger,Alger,Alger,Alger,Alger,Alger,245,279,273,272,277,277,307,290,No,0,0
305,Ain Babouche,DZA,7.188,35.938,-,-,-,-,-,"11,393","13,166","13,933","14,745","15,076","15,157","15,157","15,157","15,157","15,157",2,2,2,2,2,2,2,2,405,404,375,743,637,"3,461",63,14,Tunis,Tunis,Tunis,Tunis,Tunis,Tunis,Tunis,Tunis,329,366,325,324,325,325,324,324,No,0,0
306,Ain Beida,DZA,7.386,35.787,"12,937","27,107","34,366","47,103","68,587","93,283","122,427","139,956","160,004","176,717","191,840","205,771","219,565","233,656","247,423",14,13,15,17,19,21,23,25,943,942,"1,293",281,323,387,410,387,Tunis,Tunis,Tunis,Tunis,Tunis,Tunis,Tunis,Tunis,314,349,311,310,311,310,310,309,No,0,0
309,Ain Beida Harriche,DZA,5.889,36.392,-,-,-,-,-,"10,289","19,732","25,493","30,011","31,392","32,325","32,943","33,429",-,-,7,6,7,7,7,7,-,-,271,269,112,313,307,550,"2,050",44,Alger,Alger,Alger,Alger,Alger,Alger,-,-,267,303,296,295,301,301,-,-,No,3227,0
310,Ain Bessem,DZA,3.671,36.295,-,"13,259","10,367","14,281","20,800","29,906","38,149","41,343","44,803","47,000","48,539","49,616","50,504","51,303","51,929",4,3,3,3,4,4,4,4,583,568,"19,772",552,284,"1,309",410,"1,369",Alger,Alger,Alger,Alger,Alger,Alger,Alger,Alger,53,80,76,75,80,80,107,90,No,0,0
311,Ain Bni Mathar,MAR,-2.026,34.018,-,-,-,-,-,"12,162","15,052","16,518","18,847","20,504","22,067","23,504","24,823","26,007","27,017",4,3,3,4,4,4,5,5,"14,514","9,599",153,497,"9,706",983,123,"32,477",Rabat,Rabat,Rabat,Rabat,Rabat,Rabat,Rabat,Rabat,506,509,482,482,482,482,517,517,No,0,0
312,Ain Boucif,DZA,3.151,35.889,-,-,-,-,-,"14,368","18,608","19,333","20,086","20,105","20,105","20,105","20,105","20,105","20,105",3,3,3,3,3,3,3,3,"1,178","1,157",244,65,864,550,"1,513",20,Alger,Alger,Alger,Alger,Alger,Alger,Alger,Alger,91,88,93,92,91,91,95,86,No,0,0
313,Ain Charchar,DZA,7.225,36.734,-,-,-,-,-,"10,472","12,720","13,716","14,791","15,436","15,856","16,120","16,316","16,478","16,579",2,2,3,3,3,3,3,3,540,557,234,362,637,"3,461",43,34,Tunis,Tunis,Tunis,Tunis,Tunis,Tunis,Tunis,Tunis,312,353,307,306,307,306,306,306,No,0,0
314,Ain Defla,DZA,1.869,36.218,-,-,"11,341","17,496","29,046","43,535","72,134","91,144","101,527","109,454","116,143","121,936","127,481","133,029","138,282",33,26,28,31,33,35,37,40,556,453,714,75,68,299,410,"1,964",Alger,Alger,Alger,Alger,Alger,Alger,Alger,Alger,167,132,134,127,120,120,87,101,No,0,0
315,Ain Deheb,DZA,1.551,34.847,-,-,-,-,"16,577","21,284","26,315","28,130","30,070","31,088","31,626","31,829","31,879","31,879","31,879",3,3,3,3,3,3,3,3,"3,156","3,128",644,"3,468",244,550,"2,050",44,Alger,Alger,Alger,Alger,Alger,Alger,Alger,Alger,280,255,265,265,260,260,236,243,No,0,0
316,Ain Djasser,DZA,6.002,35.862,-,-,-,-,-,-,"10,508","11,534","12,659","13,454","14,077","14,579","15,039","15,485","15,888",6,4,5,5,5,5,6,6,821,841,103,96,637,45,22,50,Alger,Alger,Alger,Alger,Alger,Alger,Alger,Alger,291,327,320,319,324,324,355,338,No,0,0
318,Ain El Aouda,MAR,-6.797,33.795,-,-,-,-,"14,783","19,412","37,229","52,443","67,431","81,580","95,955","110,206","124,186","154,004","166,471",7,7,9,12,15,19,31,34,"1,086",795,"30,411",163,137,150,38,164,Rabat,Rabat,Rabat,Rabat,Rabat,Rabat,Rabat,Rabat,20,23,56,56,56,56,18,18,No,318,0
319,Ain El Arbaa,DZA,-0.880,35.406,-,-,-,-,-,"10,973","12,383","13,765","15,301","16,466","17,441","18,280","19,080","19,878","20,631",2,2,2,2,3,3,3,3,520,513,86,"1,012",637,"3,461",19,13,Alger,Alger,Alger,Alger,Alger,Alger,Alger,Alger,471,435,445,446,439,439,405,420,No,0,0
320,Ain El Assel,DZA,8.380,36.785,-,-,-,-,-,-,"11,519","13,268","15,284","16,993","18,560","20,019","21,472","22,960","24,422",3,3,4,4,4,5,6,6,459,367,222,102,637,"3,461",881,20,Tunis,Tunis,Tunis,Tunis,Tunis,Tunis,Tunis,Tunis,190,232,185,184,185,185,186,186,No,0,0
321,Ain El Berd,DZA,-0.512,35.367,-,-,-,-,-,"10,341","12,507","13,581","14,747","15,502","16,043","16,434","16,765","17,068","17,316",2,1,1,1,1,1,1,2,700,521,280,250,637,"3,461",43,14,Alger,Alger,Alger,Alger,Alger,Alger,Alger,Alger,435,400,410,411,404,404,371,385,No,0,0
323,Ain El Hadid,DZA,0.883,35.062,-,-,-,-,-,"10,072","11,375","12,334","13,373","14,036","14,504","14,834","15,108","15,357","15,553",1,1,1,1,2,2,2,2,"1,155","1,150",151,252,637,19,18,49,Alger,Alger,Alger,Alger,Alger,Alger,Alger,Alger,319,288,298,299,292,292,263,274,No,0,0
324,Ain El Hadjar 2,DZA,0.151,34.761,-,-,-,-,-,"16,720","20,485","24,014","28,151","31,768","35,164","38,385","41,623","44,960","48,263",5,4,5,5,6,7,8,9,"2,170","2,176",88,394,147,550,"2,050",154,Alger,Alger,Alger,Alger,Alger,Alger,Alger,Alger,401,369,380,381,374,374,344,356,No,0,0
325,Ain El Hadjar 1,DZA,5.512,35.902,-,-,-,-,-,-,"10,537","12,820","13,865","14,514","14,957","15,255","15,492","15,701","15,854",12,8,9,9,9,9,9,10,368,349,173,60,637,19,105,31,Alger,Alger,Alger,Alger,Alger,Alger,Alger,Alger,240,276,271,269,274,274,305,288,No,0,0
326,Ain El Hadjel,DZA,3.887,35.665,-,-,-,-,"16,242","25,173","29,595","32,592","35,893","38,274","40,181","41,750","43,205","44,632","45,941",6,5,6,6,7,7,7,8,"1,508","1,531",805,140,"67,479",550,410,243,Alger,Alger,Alger,Alger,Alger,Alger,Alger,Alger,124,144,143,143,145,145,164,150,No,0,0
327,Ain El Hammam,DZA,4.380,36.603,-,-,-,-,-,-,"23,971","60,849","84,383","84,383","84,383","84,383","84,383","84,383","84,383",36,40,40,40,40,40,40,40,481,"1,120",61,166,341,419,410,"1,964",Alger,Alger,Alger,Alger,Alger,Alger,Alger,Alger,102,143,124,123,130,130,164,147,No,0,0
328,Ain El Ibel,DZA,3.219,34.356,-,-,-,-,-,"12,701","15,997","19,032","23,822","27,207","30,433","33,527","36,655","39,890","43,106",3,3,3,4,4,5,6,7,"2,192","2,084","40,746",236,160,550,51,62,Alger,Alger,Alger,Alger,Alger,Alger,Alger,Alger,258,258,263,262,261,261,260,254,No,0,0
329,Ain El Kebira,DZA,5.508,36.370,-,-,-,-,"12,682","20,876","33,207","35,637","38,247","39,711","40,578","41,029","41,294","41,454","41,454",6,6,6,6,6,7,7,7,796,339,630,383,531,323,410,243,Alger,Alger,Alger,Alger,Alger,Alger,Alger,Alger,228,264,256,255,261,261,294,277,No,0,0
330,Ain El Melh,DZA,4.155,34.851,-,-,-,-,"15,847","23,166","31,063","39,604","50,493","60,627","70,677","80,601","90,776","101,382","112,048",11,9,11,14,17,21,26,30,640,625,263,203,220,"2,016",410,20,Alger,Alger,Alger,Alger,Alger,Alger,Alger,Alger,219,235,236,235,237,237,250,240,No,0,0
331,Ain Errich,DZA,4.096,34.683,-,-,-,-,-,-,"12,948","18,339","25,974","33,132","40,415","47,733","55,298","63,219","71,236",3,4,5,7,9,12,14,17,"3,397","1,862",117,323,111,550,"2,050","2,549",Alger,Alger,Alger,Alger,Alger,Alger,Alger,Alger,234,248,249,248,249,249,260,249,No,0,0
332,Ain Fakroun,DZA,6.869,35.974,-,-,-,"14,532","29,095","43,084","56,430","61,494","67,014","70,706","73,447","75,519","77,333","79,042","80,504",9,9,9,10,10,10,11,11,610,619,"1,629",103,"1,421","1,724",410,50,Tunis,Tunis,Tunis,Tunis,Tunis,Tunis,Tunis,Tunis,361,398,356,356,357,356,356,356,No,0,0
333,Ain Fekan,DZA,-0.006,35.225,-,-,-,-,-,-,"10,385","11,075","11,812","12,181","12,359","12,404","12,404","12,404","12,404",1,2,2,2,2,2,2,2,316,316,297,642,637,44,28,17,Alger,Alger,Alger,Alger,Alger,Alger,Alger,Alger,391,357,368,368,361,361,329,343,No,0,0
334,Ain Fekka,DZA,3.587,35.432,-,-,-,-,-,"14,618","16,231","19,308","22,968","26,229","29,336","32,316","35,329","38,444","41,541",3,2,3,3,4,5,5,6,"1,224","1,225","5,008","59,448",250,550,47,41,Alger,Alger,Alger,Alger,Alger,Alger,Alger,Alger,140,150,152,152,152,152,163,151,No,0,0
336,Ain Kercha,DZA,6.689,35.927,-,-,-,-,"16,553","26,142","29,209","32,074","35,221","37,450","39,204","40,620","41,919","43,183","44,327",5,4,4,4,4,5,5,5,340,380,524,143,245,550,410,"1,936",Alger,Alger,Tunis,Tunis,Tunis,Tunis,Tunis,Tunis,359,395,375,374,375,375,374,374,No,0,0
337,Ain Kermes,DZA,1.107,34.907,-,-,-,-,-,"12,898","15,514","17,649","20,079","22,080","23,873","25,511","27,126","28,772","30,374",2,2,2,2,3,3,3,3,"2,464","2,504",85,"7,473",140,550,"1,513",41,Alger,Alger,Alger,Alger,Alger,Alger,Alger,Alger,309,281,291,292,286,286,259,268,No,0,0
338,Ain Khadra,DZA,4.984,35.552,-,-,-,-,-,-,"11,513","18,069","27,805","32,434","36,935","41,317","45,781","50,415","55,051",10,10,13,15,18,22,24,26,"1,551","1,528",161,"2,764",146,550,"2,050",154,Alger,Alger,Alger,Alger,Alger,Alger,Alger,Alger,211,241,241,234,239,240,266,250,No,0,0
339,Ain Lechiakh,DZA,2.410,36.153,-,-,-,-,-,-,"11,055","11,856","12,714","13,191","13,469","13,607","13,684","13,725","13,725",2,2,2,2,2,2,2,2,"1,150","1,017","5,037",98,637,45,48,50,Alger,Alger,Alger,Alger,Alger,Alger,Alger,Alger,117,86,97,97,91,91,65,73,No,0,0
340,Ain Maabed,DZA,3.128,34.806,-,-,-,-,-,"11,410","14,048","17,475","21,738","25,668","29,524","33,304","37,165","41,182","45,211",2,2,2,2,3,3,4,5,"1,074","1,070",782,138,915,550,105,29,Alger,Alger,Alger,Alger,Alger,Alger,Alger,Alger,209,207,213,213,211,211,209,204,No,0,0
341,Ain Makhlouf,DZA,7.249,36.243,-,-,-,-,-,-,"10,502","11,172","11,885","12,223","12,364","12,371","12,371","12,371","12,371",2,2,2,2,2,2,2,2,483,483,245,642,637,44,31,23,Tunis,Tunis,Tunis,Tunis,Tunis,Tunis,Tunis,Tunis,315,354,310,310,310,310,310,310,No,0,0
342,Ain Merane,DZA,0.974,36.162,-,-,-,-,-,"12,204","15,686","18,606","22,071","25,148","28,071","30,870","33,697","36,618","39,520",3,2,3,3,4,4,5,6,256,197,"15,007","77,532",678,550,105,126,Alger,Alger,Alger,Alger,Alger,Alger,Alger,Alger,260,223,233,234,227,227,193,208,No,0,0
343,Ain M'Lila,DZA,6.572,36.024,-,"11,820","14,781","22,485","37,580","52,924","65,298","75,103","119,808","131,450","141,827","151,266","160,550","169,995","179,169",14,16,18,20,22,24,26,29,145,457,"24,254",114,113,529,410,"1,964",Alger,Alger,Alger,Alger,Alger,Alger,Tunis,Tunis,344,381,373,373,379,379,384,384,No,343,0
344,Ain Nouissy,DZA,0.049,35.803,-,-,-,-,-,-,"10,155","11,565","13,171","14,497","15,688","16,779","17,855","18,952","20,021",2,2,2,2,2,3,3,3,447,210,393,231,637,19,20,"1,258",Alger,Alger,Alger,Alger,Alger,Alger,Alger,Alger,364,328,338,339,332,332,298,314,No,0,0
345,Ain Oghrab,DZA,4.090,34.991,-,-,-,-,-,-,-,"10,701","11,959","12,936","13,770","14,501","15,206","15,914","16,588",2,2,2,2,2,2,3,3,860,858,275,642,637,44,25,11,Alger,Alger,Alger,Alger,Alger,Alger,Alger,Alger,202,218,219,218,219,219,234,221,No,0,0
346,Ain Oulmene,DZA,5.289,35.935,-,-,-,"11,470","25,643","41,172","53,214","61,126","92,126","99,289","105,326","110,549","115,545","120,542","125,269",15,27,30,32,34,37,39,41,151,446,"29,887",85,"3,448",320,410,"1,964",Alger,Alger,Alger,Alger,Alger,Alger,Alger,Alger,220,253,248,242,249,248,278,261,No,346,0
347,Ain Oussera,DZA,2.896,35.447,-,-,-,"22,151","52,638","86,756","119,931","133,508","148,641","160,189","169,918","178,333","186,382","194,430","202,044",16,16,17,19,20,21,23,24,"2,498","1,910","6,222",55,"5,971","1,024",410,387,Alger,Alger,Alger,Alger,Alger,Alger,Alger,Alger,145,136,143,143,140,140,134,130,No,0,0
348,Ain Sefra,DZA,-0.591,32.753,-,-,"10,295","16,804","26,264","35,623","47,152","58,252","71,963","84,557","96,872","108,913","121,200","133,972","146,768",12,13,16,20,24,28,34,40,"15,115","12,387","1,151","9,181",621,199,410,"1,964",Alger,Alger,Alger,Alger,Alger,Alger,Alger,Alger,603,578,588,588,582,582,557,565,No,0,0
349,Ain Sidi Ali,DZA,1.542,34.158,-,-,-,-,-,-,-,"12,085","19,338","26,008","32,885","39,857","47,095","54,691","62,403",1,1,2,2,4,4,6,7,"5,836","5,838",353,371,264,550,298,"1,836",Alger,Alger,Alger,Alger,Alger,Alger,Alger,Alger,340,320,329,329,324,324,304,309,No,0,0
350,Ain Smara,DZA,6.494,36.264,-,-,-,-,"12,729","22,017","32,227","40,059","49,795","58,766","67,566","76,190","84,999","94,163","103,351",4,4,5,6,7,9,10,12,302,350,52,"1,434",96,"1,008",410,20,Alger,Alger,Alger,Alger,Alger,Alger,Tunis,Alger,333,369,362,361,367,367,388,383,No,0,0
351,Ain Tadles,DZA,0.297,35.991,-,-,-,-,"12,458","16,401","14,320","15,975","17,822","19,245","20,453","21,506","22,516","23,530","24,493",3,3,3,3,3,4,4,4,434,415,344,"1,717",117,550,235,13,Alger,Alger,Alger,Alger,Alger,Alger,Alger,Alger,333,297,307,308,301,301,268,283,No,0,0
352,Ain Taoujdate,MAR,-5.215,33.922,-,-,-,-,"12,427","19,266","25,436","28,823","40,549","44,112","47,474","50,564","53,400","55,945","58,118",6,7,7,8,9,10,10,11,751,334,168,633,102,"1,206",132,159,Rabat,Rabat,Rabat,Rabat,Rabat,Rabat,Rabat,Rabat,170,173,149,149,149,149,181,180,No,0,0
353,Ain Tarek,DZA,1.130,35.781,-,-,-,-,-,-,"10,004","10,047","10,090","10,090","10,090","10,090","10,090","10,090","10,090",2,2,2,2,2,2,2,2,814,829,819,642,"3,686",267,"5,034",19,Alger,Alger,Alger,Alger,Alger,Alger,Alger,Alger,257,223,233,233,227,227,194,208,No,0,0
355,Ain Temouchent,DZA,-1.137,35.302,"19,269","23,503","33,024","40,575","49,575","57,639","70,854","80,331","91,076","99,840","107,635","114,712","121,666","128,738","135,599",12,10,11,13,14,15,16,18,188,190,"1,862",93,197,209,410,"1,964",Alger,Alger,Alger,Alger,Alger,Alger,Alger,Alger,500,464,474,475,468,468,435,449,No,0,0
356,Ain Tolba,DZA,-1.258,35.255,-,-,-,-,-,-,"11,435","12,162","12,936","13,301","13,452","13,456","13,456","13,456","13,456",2,2,2,2,2,2,2,2,267,255,159,226,637,45,48,18,Alger,Alger,Alger,Alger,Alger,Alger,Alger,Alger,514,478,488,489,482,482,449,463,No,0,0
357,Ain Touila,DZA,7.463,35.439,-,-,-,-,-,-,"10,163","10,931","11,757","12,236","12,534","12,705","12,821","12,907","12,945",3,2,3,3,3,3,3,3,847,833,96,642,637,44,13,27,Tunis,Tunis,Tunis,Tunis,Tunis,Tunis,Tunis,Tunis,323,354,320,319,319,319,319,319,No,0,0
358,Ain Touta,DZA,5.906,35.386,-,-,-,"17,626","32,790","47,142","59,598","61,452","63,363","63,363","63,363","63,363","63,363","63,363","63,363",11,9,9,9,9,9,9,9,"1,253","1,033",277,88,253,253,410,50,Alger,Alger,Alger,Alger,Alger,Alger,Alger,Alger,303,336,331,330,335,335,363,346,No,0,0
359,Ain Turk,DZA,-0.781,35.723,-,-,"10,598","13,325","21,804","27,407","35,820","42,926","91,122","105,565","119,525","133,061","146,817","161,083","175,329",8,14,17,21,24,29,34,39,"15,258","18,126",297,247,118,"1,324",410,"1,964",Alger,Alger,Alger,Alger,Alger,Alger,Alger,Alger,450,415,422,422,415,416,388,403,No,359,0
360,Ain Youcef,DZA,-1.376,35.048,-,-,-,-,-,"10,481","11,811","12,559","13,355","13,728","13,880","13,880","13,880","13,880","13,880",2,2,2,2,2,2,2,2,181,189,445,65,637,19,18,19,Alger,Alger,Alger,Alger,Alger,Alger,Alger,Alger,533,498,508,509,502,502,469,483,No,0,0
362,Aioun El Atrouss,MRT,-9.613,16.649,-,-,-,-,"12,227",-,"18,903","26,738","27,354","33,038","39,178","45,708","52,565","59,689","66,895",12,12,16,21,26,34,42,49,"45,625","44,426",-,-,-,-,-,-,Bamako,Bamako,Bamako,Bamako,Bamako,Bamako,Bamako,Bamako,474,480,473,488,493,491,491,487,No,0,0
363,Aisegba,NGA,5.486,7.601,-,-,-,-,-,"13,500","24,000","28,325","11,640","13,094","14,608","16,115","17,594","18,982","20,274",3,3,4,4,5,5,6,7,330,334,"1,631",299,23,604,347,62,Lagos,Lagos,Lagos,Lagos,Lagos,Lagos,Lagos,Lagos,248,255,229,224,223,222,234,225,No,0,0
365,Ait Hidja,DZA,4.016,36.523,-,-,-,"11,028","11,931","14,958",-,"72,141","80,679","80,679","80,679","80,679","80,679","80,679","80,679",29,27,27,27,27,27,27,27,348,479,298,409,"1,810","1,012",410,"1,964",Alger,Alger,Alger,Alger,Alger,Alger,Alger,Alger,64,106,92,91,97,97,129,112,No,0,0
367,Ait Ourir,MAR,-7.677,31.583,-,-,-,-,-,"16,191","29,413","67,949","78,765","91,402","104,038","116,373","128,321","139,666","150,040",11,18,22,27,32,37,43,49,"2,703",842,171,136,"2,407",132,135,144,Casablanca,Casablanca,Casablanca,Casablanca,Casablanca,Casablanca,Casablanca,Casablanca,221,217,225,224,224,224,222,222,No,0,0
369,Aiye,NGA,5.800,7.783,-,-,-,-,-,-,-,"18,410","12,012","13,661","15,405","17,177","18,951","20,657","22,288",2,2,3,3,4,5,6,6,136,134,574,"1,858",41,732,386,59,Abuja,Abuja,Abuja,Abuja,Abuja,Abuja,Abuja,Abuja,225,222,222,223,226,223,222,207,No,0,0
370,Aiye/Ankpa,NGA,8.028,7.477,-,-,-,-,-,-,"14,900","19,125","16,789","19,252","21,884","24,589","27,331","30,008","32,605",3,4,5,6,7,8,10,12,316,319,343,202,208,79,42,360,Abuja,Abuja,Abuja,Abuja,Abuja,Abuja,Abuja,Abuja,187,185,186,186,188,187,187,195,No,0,0
371,Aiyede 2,NGA,5.335,7.888,-,-,"11,000","13,000","14,800","16,900","19,200","23,780","14,071","15,829","17,658","19,481","21,269","39,741","42,445",3,4,5,5,6,7,12,13,180,185,202,201,213,81,154,105,Lagos,Abuja,Lagos,Lagos,Lagos,Lagos,Lagos,Lagos,250,255,236,231,231,229,234,225,No,371,0
372,Aiyede 1,NGA,4.389,8.315,-,-,-,-,-,"12,700","17,300","17,286","18,358","20,973","23,754","26,598","29,465","32,247","34,929",3,3,4,4,5,6,7,9,366,378,639,"1,236",62,220,646,734,Lagos,Lagos,Lagos,Lagos,Lagos,Lagos,Lagos,Lagos,214,218,219,216,216,215,194,188,No,0,0
374,Olode,NGA,4.636,7.262,-,-,-,-,-,"12,100","16,400","23,068","20,925","23,887","27,035","30,251","33,489","36,626","39,647",3,4,5,6,7,9,10,12,853,862,269,638,993,124,16,401,Lagos,Lagos,Lagos,Lagos,Lagos,Lagos,Lagos,Lagos,153,159,135,131,131,129,139,129,No,0,0
375,Aiyepe Odo,NGA,3.739,6.804,-,-,-,-,-,"10,300","13,200","14,712","10,899","12,566","14,358","16,212","18,105",-,-,3,4,5,6,7,8,-,-,147,149,535,54,644,"1,541",170,93,Lagos,Lagos,Lagos,Lagos,Lagos,Lagos,-,-,47,54,39,38,38,37,-,-,No,5199,0
376,Aiyete,NGA,3.224,7.549,-,-,-,-,-,"12,000","22,200","34,900","28,461","32,515","36,826","41,235","45,681","49,993","54,151",4,5,6,7,9,10,12,14,308,303,65,274,390,170,632,146,Lagos,Lagos,Porto-Novo,Lagos,Lagos,Lagos,Lagos,Lagos,98,97,125,131,132,132,82,83,No,0,0
377,Aiyetoro,NGA,3.028,7.239,-,"14,108","21,000","30,000","44,100","46,400","48,900","70,814","59,952","69,121","78,977","89,179","99,593","109,841","119,866",10,11,14,17,20,24,29,34,506,515,55,81,81,567,"1,415",756,Lagos,Lagos,Porto-Novo,Porto-Novo,Porto-Novo,Cotonou,Lagos,Lagos,70,67,84,99,99,105,57,63,No,0,0
378,Aiyetoro Gbede,NGA,5.988,7.992,-,-,-,"12,100","17,100","25,300","37,400","52,010","22,379","25,452","28,701","32,002","35,306","38,485","41,525",6,8,9,11,13,15,17,18,"1,195",776,77,186,36,"1,113",71,153,Abuja,Abuja,Abuja,Abuja,Abuja,Abuja,Abuja,Abuja,195,192,192,193,196,192,193,177,No,0,0
379,Aiyinase,GHA,-2.460,5.033,-,-,-,-,-,-,"15,143","16,050","20,484","23,195","25,964","28,767","31,549","34,320","39,641",8,9,10,12,14,16,19,22,"1,104","1,040","1,299",131,206,185,805,-,Abidjan,Abidjan,Abidjan,Abidjan,Abidjan,Abidjan,Abidjan,Abidjan,160,160,156,156,151,151,151,178,No,379,0
380,Ajagba,NGA,4.922,6.422,-,-,-,-,-,-,"10,600","19,823","12,250","13,909","15,660","17,433","19,203","20,901","22,519",3,3,3,4,5,6,6,7,"1,133",500,"1,853",459,247,24,158,909,Lagos,Lagos,Lagos,Lagos,Lagos,Lagos,Lagos,Lagos,170,177,132,127,126,125,167,158,No,0,0
381,Ajaokuta,NGA,6.602,7.563,-,-,"12,800","27,400","58,700","67,800","78,400","78,375","20,864","23,729","26,758","29,835","32,916","35,880","38,714",7,6,8,9,11,12,14,17,610,575,141,135,164,467,182,193,Abuja,Abuja,Abuja,Abuja,Abuja,Abuja,Abuja,Abuja,189,188,186,187,190,187,187,179,No,0,0
382,Ajasse Ipo,NGA,4.810,8.248,-,-,-,-,-,-,"12,000","16,492","17,018","19,561","22,286","25,096","27,953","40,942","44,571",2,2,3,3,4,5,10,12,328,334,77,799,121,45,160,175,Lagos,Lagos,Lagos,Lagos,Lagos,Lagos,Lagos,Lagos,234,239,231,228,228,228,217,209,No,382,0
384,Ajdabiya,LBY,20.237,30.769,"12,433","15,823","30,000","50,000","78,263","99,997","102,830","102,830","116,214","121,813","126,303","129,671","132,253","133,832","134,275",24,54,58,61,63,65,66,66,"25,949","26,355",131,397,58,165,661,317,Tripoli,Tripoli,Tripoli,Tripoli,Tripoli,Tripoli,Tripoli,Tripoli,770,774,782,780,781,781,765,765,No,0,0
385,Aje,ETH,38.353,7.303,-,-,-,-,-,-,"11,462","13,038","14,830","16,914","19,018","21,087","23,127","25,139","27,086",2,2,2,3,3,4,4,5,873,841,70,41,21,174,8,456,Addis Ababa,Addis Ababa,Addis Ababa,Addis Ababa,Addis Ababa,Addis Ababa,Addis Ababa,Addis Ababa,180,180,182,182,177,177,172,179,No,0,0
386,Ajebar,ETH,39.240,11.228,-,-,-,-,-,-,-,"17,750","21,535","23,458","25,190","26,675","27,940","29,000","29,833",5,5,6,6,7,8,8,8,942,782,134,25,26,235,77,181,Addis Ababa,Addis Ababa,Addis Ababa,Addis Ababa,Addis Ababa,Addis Ababa,Addis Ababa,Addis Ababa,265,264,264,264,269,269,274,267,No,0,0
388,Ajibar,ETH,38.766,11.037,-,-,-,-,-,-,"14,511","15,687","16,959","18,379","19,630","20,670","21,520","22,196","22,682",5,5,6,6,7,7,7,8,"1,638","1,492",98,697,69,21,102,129,Addis Ababa,Addis Ababa,Addis Ababa,Addis Ababa,Addis Ababa,Addis Ababa,Addis Ababa,Addis Ababa,238,238,238,238,239,239,243,241,No,0,0
390,Ajingi,NGA,9.037,11.966,-,-,-,-,-,-,"11,900","11,900","13,872","15,911","18,089","20,329","22,600","24,818","26,971",1,1,1,2,2,3,3,3,545,299,97,51,252,573,81,572,Abuja,Abuja,Abuja,Abuja,Abuja,Abuja,Abuja,Abuja,358,361,362,361,357,361,361,370,No,0,0
391,Aka Ese,NGA,7.673,5.912,-,-,-,-,-,-,"19,200","19,160","24,797","28,395","32,233","36,170","40,153","59,509","64,584",4,4,5,6,7,8,13,15,276,197,87,57,728,35,205,134,Malabo,Malabo,Malabo,Malabo,Malabo,Malabo,Malabo,Malabo,267,267,266,266,265,266,267,269,No,391,0
392,Akana/Ogu,NGA,6.252,4.912,-,-,-,-,-,-,-,"16,800","24,087","27,249","30,568",-,-,-,-,3,4,4,5,-,-,-,-,374,192,620,207,326,709,27,56,Malabo,Malabo,Malabo,Malabo,-,-,-,-,293,292,292,290,-,-,-,-,No,9076,0
393,Akabuka,NGA,6.639,5.228,-,-,-,"10,300","13,400","17,800","23,600","38,745","51,475","58,747","90,799","106,722","118,118","135,924","147,104",8,8,9,16,21,25,31,35,323,66,"1,678",29,"1,260",402,98,"1,713",Malabo,Malabo,Malabo,Malabo,Malabo,Malabo,Malabo,Malabo,277,276,276,274,276,277,277,270,No,393,0
395,Akahufu,NGA,8.207,6.094,-,-,-,"10,700","10,200","14,200","19,900","31,100","79,098","116,300","132,018","148,146","164,459","180,349","195,732",18,33,51,59,66,74,81,87,131,174,99,515,470,"1,002",623,227,Malabo,Malabo,Malabo,Malabo,Malabo,Malabo,Douala,Douala,263,268,276,276,278,279,266,265,No,395,0
398,Akamkpa,NGA,8.351,5.318,-,-,-,-,"11,700","13,900","16,400","24,000","31,580","35,774","40,186","44,637","49,064","53,288","57,292",5,5,6,8,9,10,12,14,"2,284","1,794",216,"1,178",421,325,109,170,Malabo,Malabo,Malabo,Malabo,Malabo,Malabo,Malabo,Douala,181,181,181,180,180,181,184,183,No,0,0
399,Akatsi,GHA,0.798,6.126,-,-,-,-,-,"19,617","33,375","33,147","32,416","32,416","32,416","32,416","32,416","32,416","32,416",10,13,13,13,13,13,13,13,731,732,528,6,216,347,737,-,Lomé,Lomé,Lomé,Lomé,Lomé,Lomé,Lomé,Lomé,40,40,35,37,52,37,45,54,No,0,0
400,Tazmalt,DZA,4.392,36.405,-,"11,010","11,523","17,061","26,743","34,182","66,509","74,684","225,217","239,811","251,400","260,849","269,566","278,082","285,843",26,78,85,91,96,100,105,109,277,937,464,"1,220",552,"3,070",410,387,Alger,Alger,Alger,Alger,Alger,Alger,Alger,Alger,124,150,135,115,147,147,179,162,No,400,0
402,Aketi,COD,23.782,2.742,-,"14,836","17,225","20,285","25,114","32,149","40,598","42,800","33,600","33,600","33,600","33,600","33,600","33,600","33,600",5,6,6,6,6,6,6,6,"10,972","11,019",38,"1,313",89,79,407,192,Bangui,Bangui,Bangui,Bangui,Bangui,Bangui,Bangui,Bangui,573,574,574,574,574,577,578,577,No,0,0
404,Akhtab,EGY,31.312,30.842,-,-,-,-,-,-,"13,112","14,912","16,028","17,064","17,977","18,876","19,758","20,518","21,125",2,1,2,2,2,2,2,2,13,13,9,"4,155",7,69,"1,276",9,Cairo,Cairo,Cairo,Cairo,Cairo,Cairo,Cairo,Cairo,79,78,88,88,82,75,74,70,No,0,0
405,Akim Achiase,GHA,-0.994,5.834,-,-,-,-,"11,533","14,236","26,326","24,843","20,575","20,575","20,575","20,575","20,575","20,575","20,575",5,6,6,6,6,6,6,6,236,258,877,10,299,386,143,-,Accra,Accra,Accra,Accra,Accra,Accra,Accra,Accra,83,96,97,80,80,87,88,103,No,0,0
406,Akim Akroso,GHA,-0.766,5.774,-,-,-,-,-,"10,664","14,671","14,865","16,587","18,998","18,998","18,998","18,998","18,998","18,998",3,5,6,6,6,6,6,6,327,363,40,13,442,323,"1,733",-,Accra,Accra,Accra,Accra,Accra,Accra,Accra,Accra,58,72,72,55,56,62,63,78,No,406,0
409,Akim Oda,GHA,-0.982,5.922,-,"19,700","20,957","23,519","29,189","38,741","51,231","58,080","72,786","106,392","106,392","106,392","106,392","106,392","106,392",17,28,40,40,40,40,40,40,345,522,141,29,324,649,"4,873",-,Accra,Accra,Accra,Accra,Accra,Accra,Accra,Accra,85,96,97,81,81,87,88,102,No,409,0
410,Akim Swedru,GHA,-1.013,5.884,-,-,-,-,-,-,"24,963","23,557","23,988",-,-,-,-,-,-,6,10,-,-,-,-,-,-,367,368,495,7,85,507,222,-,Accra,Accra,-,-,-,-,-,-,86,98,-,-,-,-,-,-,No,409,0
411,Akjoujt,MRT,-14.384,19.742,-,-,-,-,-,-,"10,676","14,993","16,645","20,275","24,214","28,421","32,854","37,474","42,162",6,6,8,11,14,18,22,26,"61,368","61,034",-,-,-,-,-,-,Nouakchott,Nouakchott,Nouakchott,Nouakchott,Nouakchott,Nouakchott,Nouakchott,Nouakchott,249,244,244,243,243,243,243,243,No,0,0
413,Aklakou,TGO,1.707,6.344,-,-,-,-,-,-,"16,497","19,330","20,067","21,915","23,789","25,631","27,371","28,961",-,5,5,6,7,7,8,9,-,146,129,356,54,52,-,-,-,Lomé,Lomé,Lomé,Lomé,Lomé,Lomé,Lomé,-,57,58,64,63,46,63,55,-,No,5317,0
415,Akokan,NER,7.339,18.711,-,-,-,-,"15,568","28,622","29,352","28,775","35,482","42,900",-,-,-,-,-,5,6,7,-,-,-,-,-,"83,071","80,192",427,114,636,-,-,-,Niamey,Niamey,Niamey,-,-,-,-,-,792,792,792,-,-,-,-,-,No,1288,0
416,Afrancho,GHA,-1.971,7.411,-,-,-,-,"11,515","14,016","17,872","20,122","25,859","46,992","54,513","62,337",-,-,-,7,11,18,22,27,-,-,-,411,220,230,21,559,46,98,-,Kumasi,Kumasi,Kumasi,Kumasi,Kumasi,-,-,-,88,89,95,88,91,-,-,-,No,8427,0
417,Akonolinga,CMR,12.259,3.789,-,-,-,"10,069","14,915","17,651","21,536","24,053","24,558","24,558","24,558","24,558","24,558","24,558","24,558",5,5,5,5,5,5,5,5,"4,749","4,705",74,684,447,136,610,"5,411",Yaounde,Yaounde,Yaounde,Yaounde,Yaounde,Yaounde,Yaounde,Yaounde,77,75,74,76,70,79,79,80,No,0,0
418,Akordat,ERI,37.882,15.542,-,"10,318","24,000","10,708",-,"23,620","25,129","25,920","42,720","49,262","56,802","65,281","74,425","83,977","93,604",5,7,8,10,13,16,20,24,"8,745","8,276",156,56,37,18,559,"1,296",Asmara,Asmara,Asmara,Asmara,Asmara,Asmara,Asmara,Asmara,112,112,112,112,112,110,110,109,No,0,0
419,Akosombo,GHA,0.035,6.265,-,-,-,-,"11,344","14,429","18,429","18,560","18,992","18,992","18,992","18,992","18,992","18,992",-,4,4,4,4,4,4,4,-,709,738,834,52,"2,177",163,822,-,Accra,Accra,Accra,Accra,Accra,Accra,Accra,-,72,59,59,69,69,66,65,-,No,145,0
421,Akoupe,CIV,-3.890,6.396,-,-,-,"14,628","20,705","22,097","25,373","27,407","44,983","48,291","51,442","54,308","56,871","59,062","60,888",4,9,10,11,12,13,13,14,776,439,161,-,-,-,-,-,Abidjan,Abidjan,Abidjan,Abidjan,Abidjan,Abidjan,Abidjan,Abidjan,113,114,126,125,125,125,125,104,No,0,0
425,Aku,NGA,7.342,6.702,-,-,-,-,-,"13,100","18,300","19,467","55,903",-,-,-,-,-,-,6,9,-,-,-,-,-,-,"1,180",513,181,50,162,132,693,472,Abuja,Abuja,-,-,-,-,-,-,263,261,-,-,-,-,-,-,No,6869,0
426,Akungba,NGA,5.745,7.450,-,-,"10,000","13,000","16,000","25,000","39,100","111,750","83,183","94,448","106,335",-,-,-,-,14,23,27,32,-,-,-,-,86,326,70,504,177,74,165,786,Abuja,Abuja,Lagos,Lagos,-,-,-,-,254,251,243,238,-,-,-,-,No,3974,0
427,Akure,NGA,5.201,7.249,"36,955","70,780","113,000","181,000","290,000","370,000","472,000","532,778","761,879","890,433","1,080,275","1,255,105","1,407,925","1,641,254","1,834,665",148,214,267,344,429,519,643,764,269,252,201,795,769,386,752,744,Lagos,Lagos,Lagos,Lagos,Lagos,Lagos,Lagos,Lagos,207,213,183,177,176,174,191,181,No,427,0
429,Akwanga,NGA,8.408,8.898,-,-,"11,600","22,400","43,300","61,300","86,700","123,383","94,034","108,403","123,845","139,829","157,074","174,405","190,305",17,28,34,41,50,61,73,86,582,563,161,"3,617",42,206,144,74,Abuja,Abuja,Abuja,Abuja,Abuja,Abuja,Abuja,Abuja,99,102,102,101,100,102,102,122,No,429,0
430,Akwatia,GHA,-0.801,6.046,-,"12,600","12,177","14,137","16,938","20,723","33,225","33,697","33,142","33,142","33,142","33,142","33,142","33,142","33,142",8,13,13,13,13,13,13,13,386,452,819,33,196,353,332,-,Accra,Accra,Accra,Accra,Accra,Accra,Accra,Accra,74,82,83,70,70,75,76,88,No,0,0
431,Akwete,NGA,7.355,4.890,-,-,-,-,-,-,"14,500","14,478","12,204","13,912","15,723","17,570","19,426",-,-,3,4,4,4,5,5,-,-,236,264,"2,063",50,103,129,305,317,Malabo,Malabo,Malabo,Malabo,Malabo,Malabo,-,-,196,195,194,193,192,192,-,-,No,7098,0
433,Al Aaroui,MAR,-2.988,34.995,-,-,-,-,"19,564","31,892","42,282","59,317","63,281","68,531","73,446","77,924","82,000","85,625","88,681",18,16,18,20,21,23,24,26,"1,425","1,398","5,043",235,290,252,593,401,Rabat,Rabat,Rabat,Rabat,Rabat,Rabat,Rabat,Rabat,417,422,386,386,387,387,432,433,No,0,0
436,Alaba Kulito,ETH,38.099,7.307,-,-,-,-,"12,168","19,684","34,242","59,944","60,122","69,802","79,802","89,883","100,047","110,273","120,390",11,19,23,28,34,40,48,54,487,826,86,45,40,31,551,206,Addis Ababa,Addis Ababa,Addis Ababa,Addis Ababa,Addis Ababa,Addis Ababa,Addis Ababa,Addis Ababa,187,188,190,189,181,181,176,187,No,0,0
438,Alabanisi,NGA,6.062,5.337,-,-,-,-,-,-,"11,500","15,042","14,645","16,678","18,831","21,023","23,222","25,344","27,377",2,2,3,4,4,5,6,6,208,181,295,50,120,393,110,215,Lagos,Lagos,Lagos,Lagos,Lagos,Lagos,Lagos,Lagos,322,328,280,275,275,273,325,317,No,0,0
439,al-Abasiya,SDN,31.300,12.165,-,-,-,-,"10,929","14,045","19,276","19,188","22,958","26,175","29,605","33,190","36,814","40,427","43,945",5,6,7,8,10,12,14,16,"4,451","4,442",581,29,25,608,412,"8,306",Khartum,Khartum,Khartum,Khartum,Khartum,Khartum,Khartum,Khartum,393,393,394,393,403,409,409,413,No,0,0
441,al-Abbasiyya,EGY,32.981,24.424,-,-,-,"11,499","16,957","22,719","28,210","31,459","34,086","35,930","37,464","38,918","40,280","41,341","42,043",1,2,2,2,2,2,2,2,757,58,5,21,"1,201",7,321,23,Cairo,Cairo,Cairo,Cairo,Cairo,Cairo,Cairo,Cairo,655,656,646,646,652,657,659,662,No,0,0
443,al-Abbasiyya al-Gadida,EGY,30.822,28.591,-,-,-,-,-,"10,142","16,712","19,142","34,745","37,794","40,690","43,673","46,736","49,633","52,269",1,2,2,3,3,3,3,4,11,12,6,5,"1,108",8,"2,458",9,Cairo,Cairo,Cairo,Cairo,Cairo,Cairo,Cairo,Cairo,180,180,170,170,176,185,193,196,No,443,0
444,Al-abyār,LBY,20.592,32.186,-,"12,537","11,164","13,839","19,873","25,071","25,745","25,745","29,147","30,551","31,677","32,522","33,170","33,566","33,677",9,10,11,12,12,12,13,13,"8,469","8,134","1,027",438,120,339,68,222,Tripoli,Tripoli,Tripoli,Tripoli,Tripoli,Tripoli,Tripoli,Tripoli,781,783,793,791,791,791,774,774,No,0,0
445,al-Adayma,EGY,32.596,25.235,-,-,-,-,-,"10,175","12,844","14,656","16,207","17,474","18,647","19,839","21,045","22,155","23,129",1,1,1,1,1,1,1,1,"4,528",212,6,31,23,90,59,"1,228",Cairo,Cairo,Cairo,Cairo,Cairo,Cairo,Cairo,Cairo,559,559,550,549,556,561,562,566,No,0,0
447,Alade,NGA,5.100,7.144,-,-,-,"11,300","15,500","20,800","27,900","28,800","23,480","26,660","30,015","33,414","36,808",-,-,4,4,5,6,7,8,-,-,341,333,203,160,91,146,86,118,Lagos,Lagos,Lagos,Lagos,Lagos,Lagos,-,-,193,200,169,164,163,162,-,-,No,427,0
449,Alagbayun,NGA,4.149,8.047,-,-,-,-,-,"10,900","14,200","19,267","17,537","20,035","22,691","25,408","28,147","30,805","33,367",3,4,5,5,7,8,9,10,"1,007",979,193,92,218,50,36,163,Lagos,Lagos,Lagos,Lagos,Lagos,Lagos,Lagos,Lagos,176,179,182,181,181,180,155,150,No,0,0
451,al-Aguzin,EGY,30.796,31.177,-,-,-,-,-,"11,293","17,481","30,888","33,922","36,243","38,323","40,393","42,444","44,255","45,751",4,3,3,3,3,4,4,4,58,64,75,45,72,"2,006",20,40,Cairo,Cairo,Cairo,Cairo,Cairo,Cairo,Cairo,Cairo,129,129,139,138,132,129,132,129,No,0,0
452,al-Rahad,SDN,30.644,12.726,-,-,"12,058","15,840","21,377","30,279","37,332","38,167","38,506","40,099","41,242","41,828","41,828","41,828","41,828",12,12,13,13,13,13,13,13,"3,022","2,999","2,857",245,959,38,58,"8,573",Khartum,Khartum,Khartum,Khartum,Khartum,Khartum,Khartum,Khartum,367,367,368,368,372,384,385,388,No,0,0
462,al-Aliqat,EGY,32.841,25.931,-,-,-,-,"12,600","15,873","19,430","21,810","24,475","26,258","27,882","29,514","31,149","32,623","33,880",0,1,1,1,1,1,1,1,36,"3,227",40,54,13,33,17,"5,453",Cairo,Cairo,Cairo,Cairo,Cairo,Cairo,Cairo,Cairo,492,492,484,483,490,493,494,498,No,0,0
463,Al-'amāmara,LBY,14.130,32.521,-,-,-,-,-,"10,441","10,594","10,594","12,325","12,919","13,395","13,752","14,026","14,193","14,240",2,11,12,12,13,13,13,13,"1,605","2,564",566,"2,955",456,236,306,493,Tripoli,Tripoli,Tripoli,Tripoli,Tripoli,Tripoli,Tripoli,Tripoli,97,103,109,108,107,107,91,91,No,0,0
465,Alamata,ETH,39.565,12.421,-,-,-,"10,684","20,289","29,208","38,662","54,262","76,766","94,827","114,421","135,137","156,882","179,546","202,760",6,7,10,13,17,23,27,33,"1,928","1,944",296,91,66,40,14,86,Asmara,Asmara,Asmara,Asmara,Asmara,Asmara,Asmara,Asmara,329,329,329,329,329,331,331,332,No,0,0
467,al-Mitimdiyya,EGY,31.100,31.005,-,-,-,-,"10,057","12,451","35,250","39,256","59,232","61,872","63,893","65,693","67,249","68,216","68,506",5,6,6,7,7,7,7,7,22,27,11,27,745,6,"1,141",7,Cairo,Cairo,Cairo,Cairo,Cairo,Cairo,Cairo,Cairo,99,99,112,108,105,101,101,97,No,467,0
471,Al-'aqūriya,LBY,20.587,32.513,-,-,-,-,-,-,"10,040","10,040","12,705","13,317","13,808","14,176","14,458","14,631","14,680",4,7,8,8,9,9,9,9,"29,788","16,409",830,"4,264","1,137",241,"1,801",263,Tripoli,Tripoli,Tripoli,Tripoli,Tripoli,Tripoli,Tripoli,Tripoli,779,781,790,788,789,788,772,772,No,0,0
472,al-Arish,EGY,33.775,31.128,"14,622","28,662","45,379","52,027","73,228","100,740","150,702","173,664","190,635","205,160","218,538","232,077","245,725","258,203","269,046",35,29,32,35,38,41,44,47,"19,936","4,317",64,33,20,"23,252",8,"3,519",Cairo,Cairo,Cairo,Cairo,Cairo,Cairo,Cairo,Cairo,280,279,282,284,282,273,260,259,No,0,0
473,al-Arki,EGY,32.159,26.005,-,-,-,-,"10,886","13,902","17,474","19,616","21,921","23,482","24,895","26,311","27,724","28,988","30,055",3,4,4,5,5,5,6,6,"1,920","1,461",7,128,63,12,"14,174","2,165",Cairo,Cairo,Cairo,Cairo,Cairo,Cairo,Cairo,Cairo,465,466,457,456,461,467,471,475,No,0,0
474,Alaroro,TCD,19.074,9.704,-,-,-,-,-,-,"10,456","12,328","14,709","17,202","19,855","22,639","25,468","28,356","31,213",4,3,4,5,6,7,8,10,"22,145","20,961","1,350","3,540",458,273,"6,902",563,Ndjamena,Ndjamena,Ndjamena,Ndjamena,Ndjamena,Ndjamena,Ndjamena,Ndjamena,498,496,492,499,491,491,495,494,No,0,0
475,al-Arqub,EGY,30.029,31.066,-,-,-,-,-,-,-,"10,211","11,066","11,806","12,464","13,117","13,761","14,325","14,784",0,0,0,1,1,1,1,1,85,44,48,33,30,32,87,23,Cairo,Cairo,Cairo,Cairo,Cairo,Cairo,Cairo,Cairo,172,172,177,178,173,175,181,179,No,0,0
478,al-Asakra,EGY,30.912,28.903,-,-,-,-,-,-,-,"10,997","12,404","13,655","14,875","16,149","17,476","19,420","20,658",0,0,0,0,0,0,1,1,15,12,18,10,278,11,26,6,Cairo,Cairo,Cairo,Cairo,Cairo,Cairo,Cairo,Cairo,143,144,135,134,139,148,157,161,No,478,0
479,al-Ashmunin,EGY,30.796,27.780,-,-,-,-,-,"10,760","13,663","34,072","38,100","41,336","44,390","47,524","50,729","53,741","56,455",1,1,2,2,2,2,2,3,20,18,11,10,23,47,58,13,Cairo,Cairo,Cairo,Cairo,Cairo,Cairo,Cairo,Cairo,266,267,259,257,264,272,279,283,No,0,0
485,al-Atamna & al-Mazara,EGY,30.736,29.276,-,-,-,-,-,-,"10,147","12,083","21,935","24,442",-,-,-,-,-,1,1,1,-,-,-,-,-,12,22,10,9,7,29,24,40,Cairo,Cairo,Cairo,-,-,-,-,-,113,115,107,-,-,-,-,-,No,608,0
489,al-Awamir & Bani Birza,EGY,32.070,26.183,-,-,-,-,-,-,"10,645","11,949","13,450","14,446","15,356","16,274","17,195","18,031","18,748",1,1,1,1,2,2,2,2,68,316,153,13,9,"3,070",14,8,Cairo,Cairo,Cairo,Cairo,Cairo,Cairo,Cairo,Cairo,444,445,435,435,441,447,449,453,No,0,0
492,al-Awaysa,EGY,30.733,28.289,-,-,-,-,-,-,-,"10,429","11,742","12,770","13,746",-,-,-,-,1,1,1,1,-,-,-,-,20,18,14,7,9,8,13,8,Cairo,Cairo,Cairo,Cairo,-,-,-,-,213,215,207,206,-,-,-,-,No,549,0
496,Ogbese,NGA,5.356,7.259,-,-,-,-,-,"11,000","14,300","14,310","14,680","16,668","18,766","20,891","23,013",-,-,3,3,3,4,4,5,-,-,385,392,171,664,94,70,79,26,Lagos,Lagos,Lagos,Lagos,Lagos,Lagos,-,-,224,229,199,194,194,192,-,-,No,427,0
498,al-Azazi,SDN,32.754,14.472,-,-,-,-,-,-,"11,583","12,884","14,744","16,453","18,224","20,017","21,769","23,459","25,044",2,3,3,4,4,5,5,6,"1,377","1,289","40,495",222,76,298,4,255,Khartum,Khartum,Khartum,Khartum,Khartum,Khartum,Khartum,Khartum,118,118,118,118,138,128,128,132,No,0,0
500,al-Aziziyya 2,EGY,31.290,30.485,"10,433","11,454","13,690","16,978","21,171","25,702","32,840","37,838","66,505","71,955","77,059","82,274","87,585",-,-,3,3,3,3,4,4,-,-,34,162,8,10,76,653,"15,210",8,Cairo,Cairo,Cairo,Cairo,Cairo,Cairo,-,-,40,39,49,49,43,37,-,-,No,2320,0
501,al-Aziziyya 1,EGY,31.059,29.425,-,-,-,-,-,"10,970","14,699","33,501","37,970","51,569","56,507","61,697","67,131","72,455","77,512",4,4,6,7,8,9,10,11,54,88,126,12,7,12,147,"1,246",Cairo,Cairo,Cairo,Cairo,Cairo,Cairo,Cairo,Cairo,83,84,73,74,80,89,98,101,No,501,0
504,al-Badari,EGY,31.429,26.966,"20,439","23,809","27,097","30,306","35,131","38,360","117,808","210,634","506,667","545,273","580,833","616,821","653,100","686,267","715,092",25,41,45,49,53,58,62,66,"1,521","2,868",13,9,19,383,162,14,Cairo,Cairo,Cairo,Cairo,Cairo,Cairo,Cairo,Cairo,350,352,339,339,346,344,348,363,No,504,0
516,al-Balamun,EGY,31.435,30.820,-,-,-,-,-,"10,185","10,557","12,006","13,038","17,521","18,583","19,647","20,709","21,662","22,468",1,1,1,1,1,1,2,2,27,27,6,228,"11,943",12,54,5,Cairo,Cairo,Cairo,Cairo,Cairo,Cairo,Cairo,Cairo,77,76,86,87,81,73,69,65,No,516,0
520,al-Bana & Izabha,EGY,31.024,31.340,-,-,-,-,"10,659","15,372","24,935","28,161","31,069","33,478","35,706","37,965","40,249","42,348","44,183",0,0,0,1,1,1,1,1,168,78,320,69,16,"5,522",311,11,Cairo,Cairo,Cairo,Cairo,Cairo,Cairo,Cairo,Cairo,138,137,147,147,141,136,135,132,No,0,0
521,al-Banawan,EGY,31.075,31.080,-,-,-,-,-,"12,116","14,953","16,652","17,677","18,465","19,067","19,604","20,068","20,356","20,442",1,1,1,1,1,1,1,1,33,36,10,14,25,8,22,486,Cairo,Cairo,Cairo,Cairo,Cairo,Cairo,Cairo,Cairo,109,108,117,118,111,106,107,103,No,0,0
522,al-Bandara,EGY,31.122,30.819,-,-,-,-,-,-,"10,420","11,603","12,408","12,999","13,465","13,891","14,271","14,532","14,655",1,1,1,1,1,1,1,1,12,14,43,70,24,6,5,11,Cairo,Cairo,Cairo,Cairo,Cairo,Cairo,Cairo,Cairo,80,79,88,89,82,78,79,76,No,0,0
523,al-Baqliyya,EGY,31.419,30.961,-,-,-,-,-,-,-,"10,178","10,865","11,537","12,121","12,692","13,246","13,715","14,076",1,1,1,1,1,1,1,1,24,25,155,5,"4,008",59,17,"5,415",Cairo,Cairo,Cairo,Cairo,Cairo,Cairo,Cairo,Cairo,93,92,101,102,96,88,84,81,No,0,0
526,Qift,EGY,32.788,26.047,-,"11,835","14,442","17,815","22,176","27,492","42,309","160,103","192,804","206,991","219,948","232,995","246,077","257,916","268,056",14,13,14,15,17,18,19,21,33,"2,674","2,120",18,16,76,5,24,Cairo,Cairo,Cairo,Cairo,Cairo,Cairo,Cairo,Cairo,479,478,475,474,480,479,481,485,No,526,0
527,al-Baramun,EGY,31.446,31.120,-,-,-,-,"11,149","13,588","16,927","19,251","20,550","21,820","22,926","24,006","25,054","25,940","26,623",1,1,1,1,1,2,2,2,21,29,54,8,17,6,"5,946",83,Cairo,Cairo,Cairo,Cairo,Cairo,Cairo,Cairo,Cairo,111,110,119,120,114,106,102,98,No,0,0
530,al-Barnugi,EGY,30.382,30.936,-,-,-,-,"10,783","14,382","18,437","20,936","22,688","24,447","26,074","27,724","29,392","30,924","32,265",1,0,0,1,1,1,1,1,34,28,9,8,10,13,15,9,Cairo,Cairo,Cairo,Cairo,Cairo,Cairo,Cairo,Cairo,134,134,140,140,135,135,142,140,No,0,0
532,al-Barun/Hillat al-Mak/Shaykh Idr,SDN,33.487,11.728,-,-,-,-,-,"10,667","13,789","15,678","13,650","14,138","14,451","14,550","14,550","14,550","14,550",5,6,6,7,7,7,7,7,"2,462","2,444",156,"1,567",74,27,7,837,Khartum,Khartum,Khartum,Khartum,Khartum,Khartum,Khartum,Khartum,431,431,432,432,452,441,441,444,No,0,0
533,al-Basaliyya Bahri,EGY,32.731,25.129,-,"10,751","12,958","15,759","18,156","18,185","34,633","38,623","41,963","44,281","46,224","48,074","49,818","51,199","52,141",6,5,5,6,6,6,7,7,712,201,10,443,14,10,181,18,Cairo,Cairo,Cairo,Cairo,Cairo,Cairo,Cairo,Cairo,574,574,565,565,571,576,578,581,No,0,0
534,al-Basaliyya Qibli,EGY,32.784,25.099,-,-,-,-,-,-,"10,294","18,130","19,699","20,788","25,692","26,814","27,889","28,772","29,420",3,2,2,3,3,3,4,4,51,105,6,63,95,22,50,"7,822",Cairo,Cairo,Cairo,Cairo,Cairo,Cairo,Cairo,Cairo,578,578,568,567,574,579,580,584,No,534,0
536,al-Basqalun,EGY,30.738,28.705,-,-,-,-,-,"10,711","14,027","16,067","18,032","19,589","21,063","22,579","24,132","25,596","26,923",1,1,1,1,1,2,2,2,26,33,4,9,7,52,13,12,Cairo,Cairo,Cairo,Cairo,Cairo,Cairo,Cairo,Cairo,170,171,163,161,167,176,185,188,No,0,0
537,Albasu,NGA,9.141,11.672,-,-,-,-,-,-,"10,300","10,250","12,139","13,923","15,829","17,790","19,777","21,718","23,602",1,2,2,3,3,4,4,5,285,181,339,160,178,127,376,395,Abuja,Abuja,Abuja,Abuja,Abuja,Abuja,Abuja,Abuja,336,338,339,338,335,338,338,349,No,0,0
540,al-Bawgah,SDN,33.886,18.262,-,-,-,"11,308","14,444","15,444","17,071","18,684","21,338","23,788","26,321","28,882","31,379","33,781","36,030",7,8,9,11,13,14,16,18,"13,717","13,050",121,206,24,395,17,"2,720",Khartum,Khartum,Khartum,Khartum,Khartum,Khartum,Khartum,Khartum,335,334,334,334,328,319,318,314,No,0,0
